RelativeTime;CenterBattery.LastStudyCycle;CenterBattery.TotalStudyCycle;CenterBattery.ConnectionStatus;CenterBattery.Temperature;CenterBattery.ProductDate;CenterBattery.SerialNumber;CenterBattery.Current;CenterBattery.ErrorType;CenterBattery.LoopNum;CenterBattery.Life;CenterBattery.FullCapacity;CenterBattery.CurrentCapacity;CenterBattery.CurrentPV;CenterBattery.RelativeCapacity;Recover.BatterySerialNumber;Recover.RemoteSerialNumber;Recover.CameraSerialNumber;Recover.ActiveTime;Recover.PlaneName;Recover.FlyControllerSerialNumber;Recover.AppVersion;Recover.AppType;Recover.DroneType;Custom.UpdateTime;Custom.Distance;Custom.HSpeed;Custom.IsVideo;Custom.IsPhoto;Custom.Timestamp;Deform.DeformProtected;Deform.TripodStatus;Deform.DeformMode;Gimbal.YawAngle;Gimbal.RollAdjust;Gimbal.Mode;Gimbal.Yaw;Gimbal.Roll;Gimbal.Pitch;Home.Height;Home.Latitude;Home.Longitude;Home.GoHomeHeight;Home.ReachedLimitHeight;Home.ReachedLimitDistance;Home.IsMultipleModeOpen;Home.IsIOCEnabled;Home.IsHomeRecord;Home.IsDynamicHomePointEnable;Home.IsCompassCeleing;Home.IsBeginnerMode;Home.HasGoHome;Home.IOCMode;Home.GoHomeStatus;Home.GoHomeMode;Home.CompassCeleStatus;Home.AirCraftHeadDirection;Osd.FlycVersion;Osd.MotorRevolution;Osd.FlyTime;Osd.SwaveHeight;Osd.Battery;Osd.NonGpsCause;Osd.MotorFailCause;Osd.MotorFailed;Osd.FlightAction;Osd.GpsNum;Osd.CanIOCWork;Osd.IsVisionUsed;Osd.IsSwaveWork;Osd.IsMotorUp;Osd.IsImuPreheated;Osd.GroundOrSky;Osd.ModeChannel;Osd.GoHomeStatus;Osd.CompassError;Osd.FlycCommand;Osd.RcState;Osd.FlycState;Osd.Yaw;Osd.Roll;Osd.Pitch;Osd.ZSpeed;Osd.YSpeed;Osd.XSpeed;Osd.Height;Osd.Latitude;Osd.Longitude;Osd.VoltageWarning;Osd.NonGpsCauseRaw;Rc.Custom2Status;Rc.Custom1Status;Rc.ShutterStatus;Rc.RecordStatus;Rc.GyroValue;Rc.Rudder;Rc.Throttle;Rc.Elevator;Rc.Aileron;RcGps.GpsStatus;RcGps.GpsNum;RcGps.YSpeed;RcGps.XSpeed;RcGps.Longitude;RcGps.Latitude;SmartBattery.Battery;SmartBattery.Voltage;SmartBattery.GoHomeCountDown;SmartBattery.SmartGoHomeStatus;SmartBattery.BatteryStatus;SmartBattery.VolumeConsume;SmartBattery.SafeFlyRadius;SmartBattery.LandBattery;SmartBattery.GoHomeBattery;SmartBattery.LandTime;SmartBattery.GoHomeTime;SmartBattery.UsefulTime;AppTip.Text;AppWarn.Text
0;;;;;;;;;;;;;;;;;;;;;;;;10/1/2015 9:13:33 AM;0;0;0;0;1443690813890;;;;0;0;YawFollow;-1512;0;-31;;;;;;;;;;;;;;;;;;;6;2;00:03:20;0;92;None;None;False;RcAssistantTakeoff;17;False;False;True;True;True;0;1;0;False;Calibration;0;GpsAtti;-1558;-16;10;0;0;0;0;32.1037345336435;34.8133654489229;0;0;0;0;False;False;1024;1684;364;364;364;;;;;;;;;;;;;;;;;;;;
0.1;0;0;Normal;31.51;7/1/2015 12:00:00 AM;456;-1047;-2147483648;13;100;4385;3420;16.082;78;;;;;;;;;;10/1/2015 9:13:33 AM;0.01201657;0;0;0;1443690813990;True;FoldComplete;Protect;;;;;;;18.76645;32.1037345375738;34.8133654573692;30;False;False;False;False;True;False;False;False;False;CourseLock;0;1;0;1;6;2;00:03:20.1000000;0;92;None;None;False;RcAssistantTakeoff;17;False;False;True;True;True;0;1;0;False;Calibration;0;GpsAtti;-1558;-16;9;0;0;0;0;32.1037345932443;34.81336555525;0;0;;;;;;;;;;;;;;;;78;16.264;0;NonGohome;None;4.456819;0;10;16;0;23;0;;
0.334;;;;;;;;;;;;;;;;;;;;;;;;10/1/2015 9:13:34 AM;0.02552676;0;0;0;1443690814224;;;;;;;;;;;;;;;;;;;;;;;;;;;;6;2;00:03:20.2000000;0;92;None;None;False;RcAssistantTakeoff;17;False;False;True;True;True;0;1;0;False;Calibration;0;GpsAtti;-1557;-16;9;0;0;0;0;32.10373457496;34.8133654137343;0;0;;;;;;;;;;;;;;;;;;;;;;;;;;;;;
0.354;;;;;;;;;;;;;;;;;;;;;;;;10/1/2015 9:13:34 AM;0.0300922;0;0;0;1443690814244;;;;0;0;YawFollow;-1512;0;-30;;;;;;;;;;;;;;;;;;;6;2;00:03:20.3000000;0;92;None;None;False;RcAssistantTakeoff;17;False;False;True;True;True;0;1;0;False;Calibration;0;GpsAtti;-1558;-16;9;0;0;0;0;32.1037345553322;34.8133653712151;0;0;0;0;False;False;1024;1684;364;364;452;;;;;;;;;;;;;;;;;;;;
0.394;;;;;;;;;;;;;;;;;;;;;;;;10/1/2015 9:13:34 AM;0.0543537;0;0;0;1443690814284;;;;0;0;YawFollow;-1513;0;-31;;;;;;;;;;;;;;;;;;;6;2;00:03:20.4000000;0;48;None;None;False;RcAssistantTakeoff;17;False;False;True;True;True;0;1;0;False;Calibration;0;GpsAtti;-1558;-16;9;0;0;0;0;32.1037347026762;34.8133655612316;0;0;0;0;False;False;1024;1262;764;1024;1024;;;;;;;;;;;;;;;;;;;;
0.497;;;;;;;;;;;;;;;;;;;;;;;;10/1/2015 9:13:34 AM;0.05890638;0;0;0;1443690814387;;;;0;0;YawFollow;-1526;0;-31;;;;;;;;;;;;;;;;;;;6;2;00:03:20.5000000;0;48;None;None;False;RcAssistantTakeoff;17;False;False;True;True;True;0;1;0;False;Calibration;0;GpsAtti;-1557;-16;10;0;0;0;0;32.1037346832296;34.8133655187511;0;0;0;0;False;False;1024;1085;904;1024;1024;;;;;;;;;;;;;;;;;;;;
0.593;;;;;;;;;;;;;;;;;;;;;;;;10/1/2015 9:13:34 AM;0.06361127;0;0;0;1443690814483;;;;0;0;YawFollow;-1537;0;-30;;;;;;;;;;;;;;;;;;;6;2;00:03:20.6000000;0;48;None;None;False;RcAssistantTakeoff;17;False;False;True;True;True;0;1;0;False;Calibration;0;GpsAtti;-1558;-16;9;0;0;0;0;32.1037346616949;34.8133654758018;0;0;0;0;False;False;1024;1024;1024;1024;1024;;;;;;;;;;;;;;;;;;;;
0.694;;;;;;;;;;;;;;;;;;;;;;;;10/1/2015 9:13:34 AM;0.07355866;0;0;0;1443690814584;;;;0;0;YawFollow;-1543;0;-30;;;;;;;;;;;;;;;;;;;6;2;00:03:20.7000000;0;48;None;None;False;RcAssistantTakeoff;17;False;False;True;True;True;0;1;0;False;Calibration;0;GpsAtti;-1558;-16;9;0;0;0;0;32.1037347096722;34.8133655648522;0;0;0;0;False;False;1024;1024;1024;1022;1024;;;;;;;;;;;;;;;;;;;;
0.792;;;;;;;;;;;;;;;;;;;;;;;;10/1/2015 9:13:34 AM;0.08698317;0;0;0;1443690814682;;;;0;0;YawFollow;-1546;0;-30;;;;;;;;;;;;;;;;;;;6;2;00:03:20.8000000;0;48;None;None;False;RcAssistantTakeoff;17;False;False;True;True;True;0;1;0;False;Calibration;0;GpsAtti;-1558;-16;9;0;0;0;0;32.1037346901276;34.8133654244888;0;0;0;0;False;False;1024;1024;1002;1024;1024;;;;;;;;;;;;;;;;;;;;
0.9;;;;;;;;;;;;;;;;;;;;;;;;10/1/2015 9:13:34 AM;0.09148534;0;0;0;1443690814790;;;;0;0;YawFollow;-1548;0;-31;;;;;;;;;;;;;;;;;;;6;2;00:03:20.9000000;0;48;None;None;False;RcAssistantTakeoff;17;False;False;True;True;True;0;1;0;False;Calibration;0;GpsAtti;-1558;-16;9;0;0;0;0;32.1037346707057;34.8133653826012;0;0;0;0;False;False;1024;1024;985;1024;1024;;;;;;;;;;;;;;;;;;;;
0.993;;;;;;;;;;;;;;;;;;;;;;;;10/1/2015 9:13:34 AM;0.1068785;0;0;0;1443690814883;;;;0;0;YawFollow;-1549;0;-30;;;;;;;;;;;;;;;;;;;6;2;00:03:21;0;48;None;None;False;RcAssistantTakeoff;17;False;False;True;True;True;0;1;0;False;Calibration;0;GpsAtti;-1558;-16;9;0;0;0;0;32.1037347938679;34.8133654578376;0;0;0;0;False;False;1024;1024;961;1024;1024;;;;;;;;;;;;;;;;;;;;
1.094;0;0;Normal;31.51;7/1/2015 12:00:00 AM;456;-1053;-2147483648;13;100;4385;3376;16.084;77;;;;;;;;;;10/1/2015 9:13:34 AM;0.111408;0;0;0;1443690814984;;;;0;0;YawFollow;-1550;0;-30;;;;;;;;;;;;;;;;;;;6;2;00:03:21.1000000;0;48;None;None;False;RcAssistantTakeoff;17;False;False;True;True;True;0;1;0;False;Calibration;0;GpsAtti;-1558;-16;10;0;0;0;0;32.1037347734478;34.8133654162755;0;0;0;0;False;False;1024;1024;871;1024;1024;;;;;;;77;16.247;0;NonGohome;None;4.456819;0;10;16;0;23;0;;
1.203;;;;;;;;;;;;;;;;;;;;;;;;10/1/2015 9:13:35 AM;0.1156397;0;0;0;1443690815093;;;;0;0;YawFollow;-1551;0;-30;;;;;;;;;;;;;;;;;;;6;2;00:03:21.2000000;0;48;None;None;False;RcAssistantTakeoff;18;False;False;True;True;True;0;1;0;False;Calibration;0;GpsAtti;-1558;-16;11;0;0;0;0;32.1037347540425;34.8133653776718;0;0;0;0;False;False;1024;1024;773;1024;1024;;;;;;;;;;;;;;;;;;;;
1.374;;;;;;;;;;;;;;;;;;;;;;;;10/1/2015 9:13:35 AM;0.1288058;0;0;0;1443690815264;;;;0;0;YawFollow;-1552;0;-30;;;;;;;;;;;;;;;;;;;6;2;00:03:21.3000000;0;48;None;None;False;RcAssistantTakeoff;18;False;False;True;True;True;0;1;0;False;Calibration;0;GpsAtti;-1558;-18;11;0;0;0;0;32.1037348152079;34.8133654972301;0;0;0;0;False;False;1024;1024;787;1024;1024;;;;;;;;;;;;;;;;;;;;
1.433;;;;;;;;;;;;;;;;;;;;;;;;10/1/2015 9:13:35 AM;0.13852;0;0;0;1443690815323;;;;;;;;;;;;;;;;;;;;;;;;;;;;6;2;00:03:21.4000000;0;48;None;None;False;RcAssistantTakeoff;18;False;False;True;True;True;0;1;0;False;Calibration;0;GpsAtti;-1558;-22;17;0;0;0;0;32.1037349007528;34.8133654750513;0;0;0;0;False;False;1024;1024;873;1024;1024;;;;;;;;;;;;;;;;;;;;
1.496;;;;;;;;;;;;;;;;;;;;;;;;10/1/2015 9:13:35 AM;0.1423657;0;0;0;1443690815386;;;;0;0;YawFollow;-1553;0;-30;;;;;;;;;;;;;;;;;;;6;2;00:03:21.5000000;0;48;None;None;False;RcAssistantTakeoff;18;False;False;True;True;True;0;1;0;False;Calibration;0;GpsAtti;-1559;-20;22;0;0;0;0;32.1037348949936;34.8133654348731;0;0;0;0;False;False;1024;1024;947;1024;1024;;;;;;;;;;;;;;;;;;;;
1.595;;;;;;;;;;;;;;;;;;;;;;;;10/1/2015 9:13:35 AM;0.1575548;0;0;0;1443690815485;;;;;;;;;;;;;;;;;;;;;;;;;;;;6;2;00:03:21.6000000;0;48;None;None;False;RcAssistantTakeoff;18;False;False;True;True;True;0;1;0;False;Calibration;0;GpsAtti;-1558;-20;18;0;0;0;0;32.1037349166998;34.813365593764;0;0;0;0;False;False;1024;1024;783;1024;1024;;;;;;;;;;;;;;;;;;;;
1.698;;;;;;;;;;;;;;;;;;;;;;;;10/1/2015 9:13:35 AM;0.1649036;0;0;0;1443690815588;;;;;;;;;;;;;;;;;;;;;;;;;;;;6;2;00:03:21.7000000;0;48;None;None;False;RcAssistantTakeoff;18;False;False;True;True;True;0;1;0;False;Calibration;0;GpsAtti;-1558;-20;13;0;0;0;0;32.1037348804194;34.8133655286093;0;0;0;0;False;False;1024;1024;756;1024;1024;;;;;;;;;;;;;;;;;;;;
1.794;;;;;;;;;;;;;;;;;;;;;;;;10/1/2015 9:13:35 AM;0.1709314;0;0;0;1443690815684;;;;0;0;YawFollow;-1554;0;-30;;;;;;;;;;;;;;;;;;;6;2;00:03:21.8000000;0;48;None;None;False;RcAssistantTakeoff;18;False;False;True;True;True;0;1;0;False;Calibration;0;GpsAtti;-1558;-21;16;0;0;0;0;32.1037348424485;34.8133654829084;0;0;0;0;False;False;1024;1024;724;1024;1024;;;;;;;;;;;;;;;;;;;;
1.893;;;;;;;;;;;;;;;;;;;;;;;;10/1/2015 9:13:35 AM;0.1839164;0;0;0;1443690815783;;;;;;;;;;;;;;;;;;;;;;;;;;;;6;2;00:03:21.9000000;0;48;None;None;False;RcAssistantTakeoff;18;False;False;True;True;True;0;1;0;False;Calibration;0;GpsAtti;-1559;-20;21;0;0;0;0;32.1037348903317;34.8133656084527;0;0;0;0;False;False;1024;1024;671;1024;1024;;;;;;;;;;;;;;;;;;;;
1.992;;;;;;;;;;;;;;;;;;;;;;;;10/1/2015 9:13:35 AM;0.1872258;0;0;0;1443690815882;;;;;;;;;;;;;;;;;;;;;;;;;;;;6;2;00:03:22;0;48;None;None;False;RcAssistantTakeoff;18;False;False;True;True;True;0;1;0;False;Calibration;0;AssistedTakeoff;-1558;-20;18;0;0;0;0;32.1037348838869;34.8133655742175;0;0;0;0;False;False;1024;1024;593;1024;1024;;;;;;;;;;;;;;;;;;;"Tips__RC Assisted Takeoff";
2.122;0;0;Normal;31.51;7/1/2015 12:00:00 AM;456;-1069;-2147483648;13;100;4385;3376;16.088;77;;;;;;;;;;10/1/2015 9:13:36 AM;0.1937824;0;0;0;1443690816012;;;;;;;;;;;;;;;;;;;;;;;;;;;;6;2;00:03:22.1000000;0;48;None;None;False;RcAssistantTakeoff;18;False;False;True;True;True;0;1;0;False;Calibration;0;AssistedTakeoff;-1558;-18;12;0;0;0;0;32.1037348532787;34.8133655147841;0;0;0;0;False;False;1024;1024;485;1024;1024;;;;;;;77;16.168;0;NonGohome;None;4.456819;0;10;16;0;24;0;;
2.202;;;;;;;;;;;;;;;;;;;;;;;;10/1/2015 9:13:36 AM;0.2170762;0;0;0;1443690816092;;;;;;;;;;;;;;;;;;;;;;;;;;;;6;2;00:03:22.2000000;0;48;None;None;False;RcAssistantTakeoff;18;False;False;True;True;True;0;1;0;False;Calibration;0;AssistedTakeoff;-1559;-18;11;0;0;0;0;32.1037350022258;34.8133656888113;0;0;0;0;False;False;1024;1024;482;1024;1024;;;;;;;;;;;;;;;;;;;;
2.357;;;;;;;;;;;;;;;;;;;;;;;;10/1/2015 9:13:36 AM;0.2208767;0;0;0;1443690816247;;;;;;;;;;;;;;;;;;;;;;;;;;;;6;2;00:03:22.3000000;0;48;None;None;False;RcAssistantTakeoff;18;False;False;True;True;True;0;1;0;False;Calibration;0;AssistedTakeoff;-1559;-18;13;0;0;0;0;32.1037349889168;34.8133656517057;0;0;0;0;False;False;1024;1024;453;1024;1024;;;;;;;;;;;;;;;;;;;;
2.412;;;;;;;;;;;;;;;;;;;;;;;;10/1/2015 9:13:36 AM;0.2237898;0;0;0;1443690816302;;;;0;0;YawFollow;-1555;0;-30;;;;;;;;;;;;;;;;;;;6;2;00:03:22.4000000;0;48;None;None;False;RcAssistantTakeoff;18;False;False;False;True;True;0;1;0;False;Calibration;0;AssistedTakeoff;-1559;-18;13;0;0;0;0;32.1037349819821;34.8133656219379;0;0;0;0;False;False;1024;1024;364;1024;1024;;;;;;;;;;;;;;;;;;;;
2.496;;;;;;;;;;;;;;;;;;;;;;;;10/1/2015 9:13:36 AM;0.2330144;0;0;0;1443690816386;;;;;;;;;;;;;;;;;;;;;;;;;;;;6;2;00:03:22.5000000;2;48;None;None;False;RcAssistantTakeoff;18;False;False;False;True;True;0;1;0;False;Calibration;0;AssistedTakeoff;-1559;-18;12;0;0;0;0;32.1037350088938;34.8133657144153;0;0;0;0;False;False;1024;1024;613;1024;1024;;;;;;;;;;;;;;;;;;;;
2.611;;;;;;;;;;;;;;;;;;;;;;;;10/1/2015 9:13:36 AM;0.2372904;0;0;0;1443690816501;True;FoldComplete;Normal;;;;;;;;;;;;;;;;;;;;;;;;;6;2;00:03:22.6000000;2;48;None;None;False;RcAssistantTakeoff;18;False;False;False;True;True;0;1;0;False;Calibration;0;AssistedTakeoff;-1559;-18;13;0;0;0;0;32.1037349889514;34.8133656756405;0;0;0;0;False;False;1024;1024;1009;1024;1024;;;;;;;;;;;;;;;;;;;;
2.746;;;;;;;;;;;;;;;;;;;;;;;;10/1/2015 9:13:36 AM;0.2417165;0;0;0;1443690816636;;;;;;;;;;;;;;;;;;;;;;;;;;;;6;2;00:03:22.7000000;2;48;None;None;False;RcAssistantTakeoff;18;False;False;False;True;True;0;1;0;False;Calibration;0;AssistedTakeoff;-1559;-18;13;0;0;0;0;32.1037349684845;34.8133656353811;0;0;0;0;False;False;1024;1024;1024;1024;1024;;;;;;;;;;;;;;;;;;;;
2.804;;;;;;;;;;;;;;;;;;;;;;;;10/1/2015 9:13:36 AM;0.2493983;0;0;0;1443690816694;;;;;;;;;;;;;;;;;;;;;;;;;;;;6;2;00:03:22.8000000;2;48;None;None;False;RcAssistantTakeoff;18;False;False;False;True;True;0;1;0;False;Calibration;0;AssistedTakeoff;-1559;-18;13;0;0;0;0;32.103735002556;34.8133657062435;0;0;0;0;False;False;1024;1024;947;1023;1024;;;;;;;;;;;;;;;;;;;;
2.899;;;;;;;;;;;;;;;;;;;;;;;;10/1/2015 9:13:36 AM;0.2539076;0;0;0;1443690816789;;;;;;;;;;;;;;;;;;;;;;;;;;;;6;2;00:03:22.9000000;2;48;None;None;False;RcAssistantTakeoff;18;False;False;False;True;True;0;1;0;False;Calibration;0;AssistedTakeoff;-1559;-18;13;0;0;0;0;32.1037349815079;34.8133656653662;0;0;0;0;False;False;1024;1024;783;978;1024;;;;;;;;;;;;;;;;;;;;
2.992;;;;;;;;;;;;;;;;;;;;;;;;10/1/2015 9:13:36 AM;0.2632687;0;0;0;1443690816882;;;;;;;;;;;;;;;;;;;;;;;;;;;;6;2;00:03:23;2;48;None;None;False;RcAssistantTakeoff;18;False;False;False;True;True;0;1;0;False;Calibration;0;AssistedTakeoff;-1559;-18;13;-1;0;0;0;32.1037350590336;34.8133656261136;0;0;0;0;False;False;1024;1024;720;824;1026;;;;;;;;;;;;;;;;;;;;
3.095;0;0;Normal;31.51;7/1/2015 12:00:00 AM;456;-1502;-2147483648;13;100;4385;3376;16.074;77;;;;;;;;;;10/1/2015 9:13:36 AM;0.2678322;0;0;0;1443690816985;;;;;;;;;;;;;;;;;;;;;;;;;;;;6;2;00:03:23.1000000;2;48;None;None;False;RcAssistantTakeoff;18;False;False;False;True;True;0;1;0;False;Calibration;0;AssistedTakeoff;-1559;-18;12;-1;0;0;0;32.1037350369226;34.8133655853363;0;0;0;0;False;False;1024;1024;507;659;1024;;;;;;;77;16.221;0;NonGohome;None;4.456819;0;10;16;0;23;0;;
3.194;;;;;;;;;;;;;;;;;;;;;;;;10/1/2015 9:13:37 AM;0.2871566;0;0;0;1443690817084;;;;;;;;;;;;;;;;;;;;;;;;;;;;6;2;00:03:23.2000000;2;48;None;None;False;RcAssistantTakeoff;18;False;False;False;True;True;0;1;0;False;Calibration;0;AssistedTakeoff;-1559;-18;14;-1;0;0;0;32.1037350783408;34.8133657842068;0;0;0;0;False;False;1024;1024;374;507;1024;;;;;;;;;;;;;;;;;;;;
3.293;;;;;;;;;;;;;;;;;;;;;;;;10/1/2015 9:13:37 AM;0.2898687;0;0;0;1443690817183;;;;;;;;;;;;;;;;;;;;;;;;;;;;6;2;00:03:23.3000000;2;48;None;None;False;RcAssistantTakeoff;18;False;False;True;True;True;0;1;0;False;Calibration;0;AssistedTakeoff;-1560;-18;22;-1;0;0;0;32.1037350727981;34.8133657562205;0;0;0;0;False;False;1024;1024;370;483;1024;;;;;;;;;;;;;;;;;;;;
3.398;;;;;;;;;;;;;;;;;;;;;;;;10/1/2015 9:13:37 AM;0.2921344;0;0;0;1443690817288;;;;;;;;;;;;;;;;;;;;;;;;;;;;6;2;00:03:23.4000000;2;48;None;None;False;RcAssistantTakeoff;18;False;False;True;True;True;0;1;0;False;Calibration;0;AssistedTakeoff;-1561;-19;40;-1;0;0;0;32.1037350903201;34.8133657438725;0;0;0;0;False;False;1024;1024;498;622;1024;;;;;;;;;;;;;;;;;;;;
3.531;;;;;;;;;;;;;;;;;;;;;;;;10/1/2015 9:13:37 AM;0.3043664;0;0;0;1443690817421;;;;;;;;;;;;;;;;;;;;;;;;;;;;6;2;00:03:23.5000000;2;48;None;None;False;RcAssistantTakeoff;18;False;False;True;True;True;0;1;0;False;Calibration;0;AssistedTakeoff;-1562;-19;52;0;0;0;0;32.1037351675715;34.813365836381;0;0;0;0;False;False;1024;1024;718;1039;1024;;;;;;;;;;;;;;;;;;;;
3.651;;;;;;;;;;;;;;;;;;;;;;;;10/1/2015 9:13:37 AM;0.3133592;0;0;0;1443690817541;True;FoldComplete;Protect;;;;;;;;;;;;;;;;;;;;;;;;;6;2;00:03:23.6000000;2;48;None;None;False;RcAssistantTakeoff;18;False;False;True;True;True;0;1;0;False;Calibration;0;AssistedTakeoff;-1562;-19;52;0;0;0;0;32.1037352397461;34.8133657929337;0;0;0;0;False;False;1024;1024;1047;1024;1024;;;;;;;;;;;;;;;;;;;;
3.71;;;;;;;;;;;;;;;;;;;;;;;;10/1/2015 9:13:37 AM;0.3226653;0;0;0;1443690817600;;;;;;;;;;;;;;;;;;;;;;;;;;;;6;2;00:03:23.7000000;2;48;None;None;False;RcAssistantTakeoff;18;False;False;True;True;True;0;1;0;False;Calibration;0;AssistedTakeoff;-1561;-19;45;0;0;0;0;32.1037351750768;34.8133657300948;0;0;0;0;False;False;1024;1024;1060;1024;1024;;;;;;;;;;;;;;;;;;;;
3.791;;;;;;;;;;;;;;;;;;;;;;;;10/1/2015 9:13:37 AM;0.33498;0;0;0;1443690817681;;;;;;;;;;;;;;;;;;;;;;;;;;;;6;2;00:03:23.8000000;2;48;None;None;False;RcAssistantTakeoff;18;False;False;True;True;True;0;1;0;False;Calibration;0;AssistedTakeoff;-1561;-19;27;0;0;0;0;32.1037352152905;34.8133658517119;0;0;0;0;False;False;1024;1024;1024;1024;1024;;;;;;;;;;;;;;;;;;;;
3.893;;;;;;;;;;;;;;;;;;;;;;;;10/1/2015 9:13:37 AM;0.3442511;0;0;0;1443690817783;;;;;;;;;;;;;;;;;;;;;;;;;;;;6;2;00:03:23.9000000;2;48;None;None;False;RcAssistantTakeoff;18;False;False;True;True;True;0;1;0;False;Calibration;0;AssistedTakeoff;-1560;-17;12;0;0;0;0;32.1037351520164;34.8133657875086;0;0;0;0;False;False;1024;1024;1018;1024;1024;;;;;;;;;;;;;;;;;;;;
3.992;;;;;;;;;;;;;;;;;;;;;;;;10/1/2015 9:13:37 AM;0.3487565;0;0;0;1443690817882;;;;;;;;;;;;;;;;;;;;;;;;;;;;6;2;00:03:24;2;48;None;None;False;RcAssistantTakeoff;18;False;False;True;True;True;0;1;0;False;Calibration;0;AssistedTakeoff;-1560;-17;13;0;0;0;0;32.1037351325138;34.8133657456328;0;0;0;0;False;False;1024;1024;728;1024;1024;;;;;;;;;;;;;;;;;;;;
4.095;0;0;Normal;31.51;7/1/2015 12:00:00 AM;456;-3947;-2147483648;13;100;4385;3376;16.023;77;;;;;;;;;;10/1/2015 9:13:37 AM;0.3642796;0;0;0;1443690817985;;;;0;0;YawFollow;-1556;0;-30;;;;;;;;;;;;;;;;;;;6;2;00:03:24.1000000;2;48;None;None;False;RcAssistantTakeoff;18;False;False;True;True;True;0;1;0;False;Calibration;0;AssistedTakeoff;-1560;-18;18;0;0;0;0;32.1037352387985;34.8133658526661;0;0;0;0;False;False;1024;1024;380;1024;1024;;;;;;;77;16.213;0;NonGohome;None;4.456819;0;10;16;0;23;0;;
4.192;;;;;;;;;;;;;;;;;;;;;;;;10/1/2015 9:13:38 AM;0.3750938;0;0;0;1443690818082;;;;;;;;;;;;;;;;;;;;;;;;;;;;6;2;00:03:24.2000000;2;48;None;None;False;RcAssistantTakeoff;18;False;False;True;True;True;0;1;0;False;Calibration;0;AssistedTakeoff;-1560;-17;16;0;0;0;0;32.103735275905;34.8133657467098;0;0;0;0;False;False;1024;1024;364;1024;1024;;;;;;;;;;;;;;;;;;;;
4.321;;;;;;;;;;;;;;;;;;;;;;;;10/1/2015 9:13:38 AM;0.3795527;0;0;0;1443690818211;;;;;;;;;;;;;;;;;;;;;;;;;;;;6;2;00:03:24.3000000;2;48;None;None;False;RcAssistantTakeoff;18;False;False;True;True;True;0;1;0;False;Calibration;0;AssistedTakeoff;-1560;-17;13;0;0;0;0;32.1037352511528;34.8133657094806;0;0;;;;;;;;;;;;;;;;;;;;;;;;;;;;;
4.391;;;;;;;;;;;;;;;;;;;;;;;;10/1/2015 9:13:38 AM;0.3895954;0;0;0;1443690818281;;;;;;;;;;;;;;;;;;;;;;;;;;;;6;2;00:03:24.4000000;2;48;None;None;False;RcAssistantTakeoff;18;False;False;True;True;True;0;1;0;False;Calibration;0;AssistedTakeoff;-1560;-17;14;0;0;0;0;32.1037353025407;34.8133657970941;0;0;0;0;False;False;1024;996;364;1024;1024;;;;;;;;;;;;;;;;;;;;
4.492;;;;;;;;;;;;;;;;;;;;;;;;10/1/2015 9:13:38 AM;0.3932313;0;0;0;1443690818382;;;;;;;;;;;;;;;;;;;;;;;;;;;;6;2;00:03:24.5000000;2;48;None;None;False;RcAssistantTakeoff;18;False;False;True;True;True;0;1;0;False;Calibration;0;AssistedTakeoff;-1560;-17;15;0;0;0;0;32.1037352858162;34.8133657639608;0;0;0;0;False;False;1024;1013;364;1024;1024;;;;;;;;;;;;;;;;;;;;
4.594;;;;;;;;;;;;;;;;;;;;;;;;10/1/2015 9:13:38 AM;0.39693;0;0;0;1443690818484;;;;;;;;;;;;;;;;;;;;;;;;;;;;6;2;00:03:24.6000000;2;48;None;None;False;RcAssistantTakeoff;18;False;False;True;True;True;0;1;0;False;Calibration;0;AssistedTakeoff;-1560;-17;14;0;0;0;0;32.1037352735689;34.8133657275107;0;0;0;0;False;False;1024;1024;364;1024;1024;;;;;;;;;;;;;;;;;;;;
4.694;;;;;;;;;;;;;;;;;;;;;;;;10/1/2015 9:13:38 AM;0.4036837;0;0;0;1443690818584;;;;;;;;;;;;;;;;;;;;;;;;;;;;6;2;00:03:24.7000000;2;48;None;None;False;RcAssistantTakeoff;18;False;False;True;True;True;0;1;0;False;Calibration;0;AssistedTakeoff;-1560;-17;14;0;0;0;0;32.1037352986715;34.8133657927038;0;0;;;;;;;;;;;;;;;;;;;;;;;;;;;;;
4.792;;;;;;;;;;;;;;;;;;;;;;;;10/1/2015 9:13:38 AM;0.4133349;0;0;0;1443690818682;;;;;;;;;;;;;;;;;;;;;;;;;;;;6;2;00:03:24.8000000;2;48;None;None;False;RcAssistantTakeoff;18;False;False;True;True;True;0;1;0;False;Calibration;0;AssistedTakeoff;-1560;-17;14;0;0;0;0;32.1037353784937;34.8133657519471;0;0;0;0;False;False;1024;1019;364;1024;1024;;;;;;;;;;;;;;;;;;;;
4.895;;;;;;;;;;;;;;;;;;;;;;;;10/1/2015 9:13:38 AM;0.4173827;0;0;0;1443690818785;;;;;;;;;;;;;;;;;;;;;;;;;;;;6;2;00:03:24.9000000;2;48;None;None;False;RcAssistantTakeoff;18;False;False;True;True;True;0;1;0;False;Calibration;0;AssistedTakeoff;-1560;-17;14;0;0;0;0;32.1037353606111;34.8133657145606;0;0;0;0;False;False;1024;1024;455;1024;1024;;;;;;;;;;;;;;;;;;;;
4.994;;;;;;;;;;;;;;;;;;;;;;;;10/1/2015 9:13:38 AM;0.4280874;0;0;0;1443690818884;;;;;;;;;;;;;;;;;;;;;;;;;;;;6;2;00:03:25;2;48;None;None;False;RcAssistantTakeoff;18;False;False;True;True;True;0;1;0;False;Calibration;0;AssistedTakeoff;-1560;-17;15;0;0;0;0;32.1037354130667;34.8133658097691;0;0;0;0;False;False;1024;1024;655;1024;1024;;;;;;;;;;;;;;;;;;;;
5.093;0;0;Normal;31.51;7/1/2015 12:00:00 AM;456;-2208;-2147483648;13;100;4385;3376;16.023;77;;;;;;;;;;10/1/2015 9:13:38 AM;0.4322565;0;0;0;1443690818983;;;;;;;;;;;;;;;;;;;;;;;;;;;;6;2;00:03:25.1000000;2;48;None;None;False;RcAssistantTakeoff;18;False;False;True;True;True;0;1;0;False;Calibration;0;AssistedTakeoff;-1560;-17;14;0;0;0;0;32.1037353937603;34.8133657718668;0;0;0;0;False;False;1024;1024;1024;1024;1024;;;;;;;77;16.223;0;NonGohome;None;4.456819;0;10;16;0;23;0;;
5.196;;;;;;;;;;;;;;;;;;;;;;;;10/1/2015 9:13:39 AM;0.4419142;0;0;0;1443690819086;;;;;;;;;;;;;;;;;;;;;;;;;;;;6;2;00:03:25.2000000;2;48;None;None;False;RcAssistantTakeoff;18;False;False;True;True;True;0;1;0;False;Calibration;0;AssistedTakeoff;-1560;-17;14;0;0;0;0;32.1037354747971;34.8133657343758;0;0;;;;;;;;;;;;;;;;;;;;;;;;;;;;;
5.293;;;;;;;;;;;;;;;;;;;;;;;;10/1/2015 9:13:39 AM;0.4501724;0;0;0;1443690819183;;;;;;;;;;;;;;;;;;;;;;;;;;;;6;2;00:03:25.3000000;2;48;None;None;False;RcAssistantTakeoff;18;False;False;True;True;True;0;1;0;False;Calibration;0;AssistedTakeoff;-1560;-17;15;0;0;0;0;32.1037355112464;34.8133658106745;0;0;;;;;;;;;;;;;;;;;;;;;;;;;;;;;
5.492;;;;;;;;;;;;;;;;;;;;;;;;10/1/2015 9:13:39 AM;0.4582726;0;0;0;1443690819382;;;;;;;;;;;;;;;;;;;;;;;;;;;;6;2;00:03:25.5000000;2;48;None;None;False;RcAssistantTakeoff;18;False;False;False;True;True;0;1;0;False;Calibration;0;AssistedTakeoff;-1560;-17;14;0;0;0;0;32.1037354723131;34.8133657380607;0;0;;;;;;;;;;;;;;;;;;;;;;;;;;;;;
5.653;;;;;;;;;;;;;;;;;;;;;;;;10/1/2015 9:13:39 AM;0.4686777;0;0;0;1443690819543;True;FoldComplete;Normal;;;;;;;;;;;;;;;;;;;;;;;;;6;2;00:03:25.6000000;2;48;None;None;False;RcAssistantTakeoff;18;False;False;False;True;True;0;1;0;False;Calibration;0;AssistedTakeoff;-1560;-17;14;0;0;0;0;32.1037355161521;34.8133658355288;0;0;;;;;;;;;;;;;;;;;;;;;;;;;;;;;
5.736;;;;;;;;;;;;;;;;;;;;;;;;10/1/2015 9:13:39 AM;0.4728335;0;0;0;1443690819626;;;;;;;;;;;;;;;;;;;;;;;;;;;;6;2;00:03:25.7000000;2;48;None;None;False;RcAssistantTakeoff;18;False;False;False;True;True;0;1;0;False;Calibration;0;AssistedTakeoff;-1560;-17;14;0;0;0;0;32.1037354966951;34.8133657978978;0;0;;;;;;;;;;;;;;;;;;;;;;;;;;;;;
5.857;;;;;;;;;;;;;;;;;;;;;;;;10/1/2015 9:13:39 AM;0.4824719;0;0;0;1443690819747;;;;;;;;;;;;;;;;;;;;;;;;;;;;6;2;00:03:25.8000000;2;48;None;None;False;RcAssistantTakeoff;18;False;False;False;True;True;0;1;0;False;Calibration;0;AssistedTakeoff;-1560;-17;13;0;0;0;0;32.1037355771523;34.8133657592597;0;0;;;;;;;;;;;;;;;;;;;;;;;;;;;;;
5.899;;;;;;;;;;;;;;;;;;;;;;;;10/1/2015 9:13:39 AM;0.4899569;0;0;0;1443690819789;;;;;;;;;;;;;;;;;;;;;;;;;;;;6;2;00:03:25.9000000;2;48;None;None;False;RcAssistantTakeoff;18;False;False;False;True;True;0;1;0;False;Calibration;0;AssistedTakeoff;-1560;-17;14;0;0;0;0;32.1037356204097;34.8133658201364;0;0;0;0;False;False;1024;1024;1348;1024;1024;;;;;;;;;;;;;;;;;;;;
5.99;;;;;;;;;;;;;;;;;;;;;;;;10/1/2015 9:13:39 AM;0.4940027;0;0;0;1443690819880;;;;0;0;YawFollow;-1555;0;-30;;;;;;;;;;;;;;;;;;;6;2;00:03:26;2;48;None;None;False;RcAssistantTakeoff;18;False;False;False;True;True;0;1;0;False;Calibration;0;AssistedTakeoff;-1560;-17;14;0;0;0;0;32.103735601979;34.813365783143;0;0;0;0;False;False;1024;1024;1420;1024;1024;;;;;;;;;;;;;;;;;;;;
6.094;0;0;Normal;31.51;7/1/2015 12:00:00 AM;456;-2083;-2147483648;13;100;4385;3376;16.047;77;;;;;;;;;;10/1/2015 9:13:39 AM;0.4979609;0;0;0;1443690819984;;;;;;;;;;;;;;;;;;;;;;;;;;;;6;2;00:03:26.1000000;2;48;None;None;False;RcAssistantTakeoff;18;False;False;False;True;True;0;1;0;False;Calibration;0;AssistedTakeoff;-1560;-17;13;0;0;0;0;32.103735583471;34.8133657472838;0;0;0;0;False;False;1024;1024;1432;1024;1024;;;;;;;77;16.218;0;NonGohome;None;4.456819;0;10;16;0;23;0;;
6.193;;;;;;;;;;;;;;;;;;;;;;;;10/1/2015 9:13:40 AM;0.5075628;0;0;0;1443690820083;;;;;;;;;;;;;;;;;;;;;;;;;;;;6;2;00:03:26.2000000;2;48;None;None;False;RcAssistantTakeoff;18;False;False;False;True;True;0;1;0;False;Calibration;0;AssistedTakeoff;-1560;-17;14;0;0;0;0;32.1037356644617;34.8133657112949;0;0;0;0;False;False;1024;1024;1450;1024;1024;;;;;;;;;;;;;;;;;;;;
6.293;;;;;;;;;;;;;;;;;;;;;;;;10/1/2015 9:13:40 AM;0.5170285;0;0;0;1443690820183;;;;;;;;;;;;;;;;;;;;;;;;;;;;6;2;00:03:26.3000000;2;48;None;None;False;RcAssistantTakeoff;18;False;False;False;True;True;0;1;0;False;Calibration;0;AssistedTakeoff;-1560;-18;15;0;0;0;0;32.1037357112363;34.8133657951856;0;0;0;0;False;False;1024;1024;1141;1024;1024;;;;;;;;;;;;;;;;;;;;
6.397;;;;;;;;;;;;;;;;;;;;;;;;10/1/2015 9:13:40 AM;0.5192925;0;0;0;1443690820287;;;;;;;;;;;;;;;;;;;;;;;;;;;;6;2;00:03:26.4000000;2;48;None;None;False;RcAssistantTakeoff;18;False;False;False;True;True;0;1;0;False;Calibration;0;AssistedTakeoff;-1560;-20;22;0;0;0;0;32.1037357044117;34.8133657725784;0;0;0;0;False;False;1024;1024;1024;1024;1024;;;;;;;;;;;;;;;;;;;;
6.503;;;;;;;;;;;;;;;;;;;;;;;;10/1/2015 9:13:40 AM;0.5209611;0;0;0;1443690820393;;;;;;;;;;;;;;;;;;;;;;;;;;;;6;2;00:03:26.5000000;2;48;None;None;False;RcAssistantTakeoff;18;False;False;False;True;True;0;1;0;False;Calibration;0;AssistedTakeoff;-1560;-22;34;0;0;0;0;32.1037357142019;34.8133657591541;0;0;;;;;;;;;;;;;;;;;;;;;;;;;;;;;
6.601;;;;;;;;;;;;;;;;;;;;;;;;10/1/2015 9:13:40 AM;0.5345696;0;0;0;1443690820491;;;;;;;;;;;;;;;;;;;;;;;;;;;;6;2;00:03:26.6000000;2;48;None;None;False;RcAssistantTakeoff;18;False;False;False;True;True;0;1;0;False;Calibration;0;AssistedTakeoff;-1564;-18;49;0;0;0;0;32.1037358006141;34.813365861531;0;0;;;;;;;;;;;;;;;;;;;;;;;;;;;;;
6.695;;;;;;;;;;;;;;;;;;;;;;;;10/1/2015 9:13:40 AM;0.5440405;0;0;0;1443690820585;;;;0;0;YawFollow;-1556;0;-30;;;;;;;;;;;;;;;;;;;6;2;00:03:26.7000000;2;48;None;None;False;RcAssistantTakeoff;18;False;False;False;True;True;0;1;0;False;Calibration;0;AssistedTakeoff;-1575;-16;70;0;0;0;0;32.1037358857392;34.8133658697098;0;0;;;;;;;;;;;;;;;;;;;;;;;;;;;;;
6.792;;;;;;;;;;;;;;;;;;;;;;;;10/1/2015 9:13:40 AM;0.5604538;0;0;0;1443690820682;;;;0;0;YawFollow;-1558;0;-30;;;;;;;;;;;;;;;;;;;6;2;00:03:26.8000000;2;48;None;None;False;RcAssistantTakeoff;18;False;False;False;True;True;0;1;0;False;Calibration;0;AssistedTakeoff;-1594;-29;95;0;0;0;0;32.1037360105801;34.8133659631343;0;0;0;0;False;False;1024;1024;1160;1024;1024;;;;;;;;;;;;;;;;;;;;
6.894;;;;;;;;;;;;;;;;;;;;;;;;10/1/2015 9:13:40 AM;0.5695267;0;0;0;1443690820784;;;;0;0;YawFollow;-1561;0;-30;;;;;;;;;;;;;;;;;;;6;2;00:03:26.9000000;2;48;None;None;False;RcAssistantTakeoff;18;False;False;False;True;True;0;1;0;False;Calibration;0;AssistedTakeoff;-1604;-39;96;0;0;0;0;32.1037359830717;34.8133660536635;0;0;0;0;False;False;1024;1024;1232;1024;1024;;;;;;;;;;;;;;;;;;;;
6.992;;;;;;;;;;;;;;;;;;;;;;;;10/1/2015 9:13:40 AM;0.5823661;1.414214;0;0;1443690820882;;;;0;0;YawFollow;-1563;0;-30;;;;;;;;;;;;;;;;;;;6;2;00:03:27;2;48;None;None;False;RcAssistantTakeoff;18;False;False;False;True;True;0;1;0;False;Calibration;0;AssistedTakeoff;-1602;-32;67;0;-1;-1;0;32.1037358775161;34.813365997758;0;0;0;0;False;False;1024;1024;1205;1024;1024;;;;;;;;;;;;;;;;;;;;
7.099;0;0;Normal;31.51;7/1/2015 12:00:00 AM;456;-1978;-2147483648;13;100;4385;3376;16.052;77;;;;;;;;;;10/1/2015 9:13:40 AM;0.6092046;1.414214;0;0;1443690820989;;;;0;0;YawFollow;-1566;0;-30;;;;;;;;;;;;;;;;;;;6;2;00:03:27.1000000;2;48;None;None;False;RcAssistantTakeoff;18;False;False;False;True;True;0;1;0;False;Calibration;0;AssistedTakeoff;-1603;-25;26;0;-1;-1;0;32.1037356878663;34.8133658210948;0;0;0;0;False;False;1024;1024;1231;1024;1024;;;;;;;77;15.939;0;NonGohome;None;4.456819;0;10;16;0;23;0;;
7.197;;;;;;;;;;;;;;;;;;;;;;;;10/1/2015 9:13:41 AM;0.6173442;1;0;0;1443690821087;;;;0;0;YawFollow;-1568;0;-30;;;;;;;;;;;;;;;;;;;6;2;00:03:27.2000000;2;48;None;None;False;RcAssistantTakeoff;18;False;False;False;True;True;0;1;0;False;Calibration;0;AssistedTakeoff;-1606;-24;2;0;-1;0;0;32.1037357612671;34.8133658218637;0;0;0;0;False;False;1024;1024;1214;1024;1024;;;;;;;;;;;;;;;;;;;;
7.298;;;;;;;;;;;;;;;;;;;;;;;;10/1/2015 9:13:41 AM;0.6250798;1;0;0;1443690821188;;;;0;0;YawFollow;-1571;0;-30;;;;;;;;;;;;;;;;;;;6;2;00:03:27.3000000;2;48;None;None;False;RcAssistantTakeoff;18;False;False;False;True;True;0;1;0;False;Calibration;0;AssistedTakeoff;-1610;-24;4;0;-1;0;0;32.1037357415548;34.8133657432475;0;0;0;0;False;False;1024;1024;1220;1024;1024;;;;;;;;;;;;;;;;;;;;
7.475;;;;;;;;;;;;;;;;;;;;;;;;10/1/2015 9:13:41 AM;0.6365787;0;0;0;1443690821365;;;;0;0;YawFollow;-1574;0;-30;;;;;;;;;;;;;;;;;;;6;2;00:03:27.4000000;2;48;None;None;False;RcAssistantTakeoff;18;False;False;False;True;True;0;1;0;False;Calibration;0;AssistedTakeoff;-1613;-23;18;0;0;0;0;32.1037356479474;34.8133656908249;0;0;0;0;False;False;1024;1024;1239;1024;1024;;;;;;;;;;;;;;;;;;;;
7.607;;;;;;;;;;;;;;;;;;;;;;;;10/1/2015 9:13:41 AM;0.6693358;0;0;0;1443690821497;;;;0;0;YawFollow;-1577;0;-30;;;;;;;;;;;;;;;;;;;6;2;00:03:27.5000000;2;48;None;None;False;RcAssistantTakeoff;18;False;False;False;True;True;0;1;0;False;Calibration;0;AssistedTakeoff;-1619;-18;41;4;0;0;0;32.103735910771;34.8133658492662;0;0;;;;;;;;;;;;;;;;;;;;;;;;;;;;;
7.687;;;;;;;;;;;;;;;;;;;;;;;;10/1/2015 9:13:41 AM;0.6876827;1;0;0;1443690821577;;;;0;0;YawFollow;-1580;0;-30;;;;;;;;;;;;;;;;;;;6;2;00:03:27.6000000;2;48;None;None;False;RcAssistantTakeoff;18;False;False;False;True;True;0;1;0;False;Calibration;0;AssistedTakeoff;-1628;-17;59;2;0;1;-0.1;32.1037360400284;34.8133659706064;0;0;0;0;False;False;1024;1024;1233;1024;1024;;;;;;;;;;;;;;;;;;;;
7.755;;;;;;;;;;;;;;;;;;;;;;;;10/1/2015 9:13:41 AM;0.7078704;2;0;0;1443690821645;;;;0;0;YawFollow;-1585;0;-30;;;;;;;;;;;;;;;;;;;6;2;00:03:27.7000000;2;48;None;None;False;RcAssistantTakeoff;18;False;False;False;True;True;2;1;0;False;Calibration;0;GpsAtti;-1637;-23;53;0;0;2;-0.2;32.1037362123933;34.813366039451;0;0;0;0;False;False;1024;1024;1122;1024;1024;;;;;;;;;;;;;;;;;;;;
7.814;;;;;;;;;;;;;;;;;;;;;;;;10/1/2015 9:13:41 AM;0.7555447;3;0;0;1443690821704;;;;0;0;YawFollow;-1589;0;-30;;;;;;;;;;;;;;;;;;;6;2;00:03:27.8000000;2;48;None;None;False;RcAssistantTakeoff;18;False;False;False;True;True;2;1;0;False;Calibration;0;GpsAtti;-1639;-24;14;-2;0;3;-0.2;32.1037365947838;34.8133662703198;0;0;0;0;False;False;1024;1024;1077;1024;1024;;;;;;;;;;;;;;;;;;;;
7.896;;;;;;;;;;;;;;;;;;;;;;;;10/1/2015 9:13:41 AM;0.7857924;3.162278;0;0;1443690821786;;;;0;0;YawFollow;-1593;0;-30;;;;;;;;;;;;;;;;;;;6;2;00:03:27.9000000;2;48;None;None;False;RcAssistantTakeoff;18;False;False;False;True;True;2;1;0;False;Calibration;0;GpsAtti;-1640;-18;-8;-4;1;3;-0.1;32.1037368486452;34.8133663875747;0;0;0;0;False;False;1024;1024;1113;1024;1024;;;;;;;;;;;;;;;;;;;;
7.992;;;;;;;;;;;;;;;;;;;;;;;;10/1/2015 9:13:41 AM;0.8425738;3.162278;0;0;1443690821882;;;;0;0;YawFollow;-1596;0;-30;;;;;;;;;;;;;;;;;;;6;2;00:03:28;3;48;None;None;False;RcAssistantTakeoff;18;False;False;False;True;True;2;1;0;False;Calibration;0;GpsAtti;-1640;-13;-26;-5;1;3;0;32.1037373322983;34.8133665851512;0;0;0;0;False;False;1024;1024;1174;1024;1024;;;;;;;;;;;;;;;;;;;;
8.094;0;0;Normal;31.51;7/1/2015 12:00:00 AM;456;-9709;-2147483648;13;100;4385;3376;15.742;77;;;;;;;;;;10/1/2015 9:13:41 AM;0.8809239;2;0;0;1443690821984;;;;0;0;YawFollow;-1599;0;-30;;;;;;;;;;;;;;;;;;;6;2;00:03:28.1000000;3;48;None;None;False;RcAssistantTakeoff;18;False;False;False;True;True;2;1;0;False;Calibration;0;GpsAtti;-1641;-5;-36;-4;0;2;0;32.1037376385365;34.8133667739531;0;0;0;0;False;False;1024;1024;1163;1024;1024;;;;;;;77;15.553;0;NonGohome;None;4.456819;0;10;16;0;23;0;;
8.198;;;;;;;;;;;;;;;;;;;;;;;;10/1/2015 9:13:42 AM;0.9357895;2;0;0;1443690822088;;;;0;0;YawFollow;-1602;0;-30;;;;;;;;;;;;;;;;;;;6;2;00:03:28.2000000;2;48;None;None;False;RcAssistantTakeoff;18;False;False;False;True;True;2;1;0;False;Calibration;0;GpsAtti;-1642;0;-43;-4;0;2;0.1;32.1037380933893;34.8133670027197;0;0;0;0;False;False;1024;1024;1172;1024;1024;;;;;;;;;;;;;;;;;;;;
8.303;;;;;;;;;;;;;;;;;;;;;;;;10/1/2015 9:13:42 AM;0.9536248;1;0;0;1443690822193;;;;0;0;YawFollow;-1604;0;-30;;;;;;;;;;;;;;;;;;;6;2;00:03:28.3000000;2;48;None;None;False;RcAssistantTakeoff;18;False;False;False;True;True;2;1;0;False;Calibration;0;GpsAtti;-1639;-5;-47;-4;0;1;0.2;32.1037382502347;34.8133670445713;0;0;0;0;False;False;1024;1024;1146;1024;1024;;;;;;;;;;;;;;;;;;;;
8.402;;;;;;;;;;;;;;;;;;;;;;;;10/1/2015 9:13:42 AM;1.00935;0;0;0;1443690822292;;;;0;0;YawFollow;-1606;0;-30;;;;;;;;;;;;;;;;;;;6;2;00:03:28.4000000;2;48;None;None;False;RcAssistantTakeoff;17;False;False;False;True;True;2;1;0;False;Calibration;0;GpsAtti;-1637;-7;-47;-3;0;0;0.2;32.1037386479517;34.8133674054644;0;0;0;0;False;False;1024;1024;1176;1024;1024;;;;;;;;;;;;;;;;;;;;
8.498;;;;;;;;;;;;;;;;;;;;;;;;10/1/2015 9:13:42 AM;1.0148;0;0;0;1443690822388;;;;0;0;YawFollow;-1607;0;-30;;;;;;;;;;;;;;;;;;;6;2;00:03:28.5000000;2;48;None;None;False;RcAssistantTakeoff;17;False;False;False;True;True;2;1;0;False;Calibration;0;GpsAtti;-1638;-5;-57;-3;0;0;0.2;32.1037386943391;34.8133674245394;0;0;0;0;False;False;1024;1024;1206;1024;1024;;;;;;;;;;;;;;;;;;;;
8.607;;;;;;;;;;;;;;;;;;;;;;;;10/1/2015 9:13:42 AM;1.037104;0;0;0;1443690822497;;;;0;0;YawFollow;-1609;0;-30;;;;;;;;;;;;;;;;;;;6;2;00:03:28.6000000;3;48;None;None;False;RcAssistantTakeoff;17;False;False;False;True;True;2;1;0;False;Calibration;0;GpsAtti;-1637;2;-49;-2;0;0;0.2;32.1037387393357;34.8133676548517;0;0;0;0;False;False;1024;1024;1200;1024;1024;;;;;;;;;;;;;;;;;;;;
8.692;;;;;;;;;;;;;;;;;;;;;;;;10/1/2015 9:13:42 AM;1.067041;0;0;0;1443690822582;;;;0;0;YawFollow;-1610;0;-30;;;;;;;;;;;;;;;;;;;6;2;00:03:28.7000000;3;48;None;None;False;RcAssistantTakeoff;17;False;False;False;True;True;2;1;0;False;Calibration;0;GpsAtti;-1636;6;-41;-2;0;0;0.2;32.1037389162368;34.8133678944445;0;0;0;0;False;False;1024;1024;1205;1024;1024;;;;;;;;;;;;;;;;;;;;
8.793;;;;;;;;;;;;;;;;;;;;;;;;10/1/2015 9:13:42 AM;1.082219;0;0;0;1443690822683;;;;0;0;YawFollow;-1611;0;-30;;;;;;;;;;;;;;;;;;;6;2;00:03:28.8000000;3;48;None;None;False;RcAssistantTakeoff;17;False;False;False;True;True;2;1;0;False;Calibration;0;GpsAtti;-1634;5;-36;-3;0;0;0.2;32.1037388788703;34.8133680491509;0;0;0;0;False;False;1024;1024;1214;1024;1024;;;;;;;;;;;;;;;;;;;;
8.896;;;;;;;;;;;;;;;;;;;;;;;;10/1/2015 9:13:42 AM;1.095662;1;0;0;1443690822786;;;;0;0;YawFollow;-1612;0;-30;;;;;;;;;;;;;;;;;;;6;2;00:03:28.9000000;3;48;None;None;False;RcAssistantTakeoff;17;False;False;False;True;True;2;1;0;False;Calibration;0;GpsAtti;-1632;8;-20;-3;0;-1;0.3;32.1037387666747;34.8133679952151;0;0;0;0;False;False;1024;1024;1152;1024;1024;;;;;;;;;;;;;;;;;;;;
8.992;;;;;;;;;;;;;;;;;;;;;;;;10/1/2015 9:13:42 AM;1.122216;1;0;0;1443690822882;;;;;;;;;;;;;;;;;;;;;;;;;;;;6;2;00:03:29;3;48;None;None;False;RcAssistantTakeoff;17;False;False;False;True;True;2;1;0;False;Calibration;0;GpsAtti;-1628;9;-18;-3;0;-1;0.3;32.1037387775344;34.8133682762553;0;0;0;0;False;False;1024;1024;1156;1024;1024;;;;;;;;;;;;;;;;;;;;
9.093;0;0;Normal;31.51;7/1/2015 12:00:00 AM;456;-15639;-2147483648;13;100;4385;3376;15.558;77;;;;;;;;;;10/1/2015 9:13:42 AM;1.141349;1.414214;0;0;1443690822983;;;;0;0;YawFollow;-1613;0;-30;;;;;;;;;;;;;;;;;;;6;2;00:03:29.1000000;3;48;None;None;False;RcAssistantTakeoff;17;False;False;False;True;True;2;1;0;False;Calibration;0;GpsAtti;-1627;3;-16;-4;-1;-1;0.3;32.1037386685873;34.8133681190582;0;0;0;0;False;False;1024;1024;1090;1024;1024;;;;;;;77;15.383;0;NonGohome;None;4.444794;2577.454;10;18;0;23;660;;
9.218;;;;;;;;;;;;;;;;;;;;;;;;10/1/2015 9:13:43 AM;1.167068;1;0;0;1443690823108;;;;;;;;;;;;;;;;;;;;;;;;;;;;6;2;00:03:29.2000000;7;48;None;None;False;RcAssistantTakeoff;17;False;False;False;True;True;2;1;0;False;Calibration;0;GpsAtti;-1628;-2;-10;-4;0;-1;0.3;32.1037384423353;34.8133681789988;0;0;0;0;False;False;1024;1024;1098;1024;1024;;;;;;;;;;;;;;;;;;;;
9.402;;;;;;;;;;;;;;;;;;;;;;;;10/1/2015 9:13:43 AM;1.185993;1;0;0;1443690823292;;;;0;0;YawFollow;-1614;0;-30;;;;;;;;;;;;;;;;;;;6;2;00:03:29.3000000;8;48;None;None;False;RcAssistantTakeoff;17;False;False;False;True;True;2;1;0;False;Calibration;0;GpsAtti;-1629;-1;-11;-3;0;-1;0.4;32.10373828284;34.8133681076367;0;0;0;0;False;False;1024;1024;1099;1024;1024;;;;;;;;;;;;;;;;;;;;
9.495;;;;;;;;;;;;;;;;;;;;;;;;10/1/2015 9:13:43 AM;1.205876;1;0;0;1443690823385;;;;;;;;;;;;;;;;;;;;;;;;;;;;6;2;00:03:29.5000000;8;48;None;None;False;RcAssistantTakeoff;17;False;False;False;True;True;2;1;0;False;Calibration;0;GpsAtti;-1625;4;-14;-1;0;-1;0.4;32.1037381328305;34.8133682230257;0;0;0;0;False;False;1024;1024;1233;1024;1024;;;;;;;;;;;;;;;;;;;;
9.657;;;;;;;;;;;;;;;;;;;;;;;;10/1/2015 9:13:43 AM;1.230507;1;0;0;1443690823547;;;;;;;;;;;;;;;;;;;;;;;;;;;;6;2;00:03:29.6000000;11;48;None;None;False;RcAssistantTakeoff;18;False;False;False;True;True;2;1;0;False;Calibration;0;GpsAtti;-1628;5;-11;-5;0;-1;0.4;32.1037379124183;34.8133681907192;0;0;0;0;False;False;1024;1024;1243;1024;1024;;;;;;;;;;;;;;;;;;;;
9.78;;;;;;;;;;;;;;;;;;;;;;;;10/1/2015 9:13:43 AM;1.245391;2;0;0;1443690823670;;;;0;0;YawFollow;-1615;0;-30;;;;;;;;;;;;;;;;;;;6;2;00:03:29.7000000;11;48;None;None;False;RcAssistantTakeoff;18;False;False;False;True;True;2;1;0;False;Calibration;0;GpsAtti;-1630;4;-9;-6;0;-2;0.5;32.1037377971098;34.8133682714434;0;0;0;0;False;False;1024;1024;1239;1024;1024;;;;;;;;;;;;;;;;;;;;
9.849;;;;;;;;;;;;;;;;;;;;;;;;10/1/2015 9:13:43 AM;1.269494;2;0;0;1443690823739;;;;;;;;;;;;;;;;;;;;;;;;;;;;6;2;00:03:29.8000000;11;48;None;None;False;RcAssistantTakeoff;18;False;False;False;True;True;2;1;0;False;Calibration;0;GpsAtti;-1632;5;0;-7;0;-2;0.7;32.1037375809685;34.8133682984762;0;0;0;0;False;False;1024;1024;1232;1024;1024;;;;;;;;;;;;;;;;;;;;
9.897;;;;;;;;;;;;;;;;;;;;;;;;10/1/2015 9:13:43 AM;1.29424;2;0;0;1443690823787;;;;0;0;YawFollow;-1616;0;-30;;;;;;;;;;;;;;;;;;;6;2;00:03:29.9000000;12;48;None;None;False;RcAssistantTakeoff;18;False;False;False;True;True;2;1;0;False;Calibration;0;GpsAtti;-1633;10;4;-7;0;-2;0.7;32.1037373622955;34.8133682461369;0;0;0;0;False;False;1024;1024;1180;1024;1024;;;;;;;;;;;;;;;;;;;;
9.993;0;0;Normal;31.51;7/1/2015 12:00:00 AM;456;-16887;-2147483648;13;100;4385;3376;15.44;77;;;;;;;;;;10/1/2015 9:13:43 AM;1.32309;2;0;0;1443690823883;;;;0;0;YawFollow;-1617;0;-30;;;;;;;;;;;;;;;;;;;6;2;00:03:30;12;48;None;None;False;RcAssistantTakeoff;18;False;False;False;True;True;2;1;0;False;Calibration;0;GpsAtti;-1634;15;11;-7;0;-2;0.8;32.1037371684327;34.8133684499836;0;0;0;0;False;False;1024;1024;1060;1024;1024;;;;;;;77;15.439;0;NonGohome;None;4.431818;2577.454;10;18;0;23;660;;
10.197;;;;;;;;;;;;;;;;;;;;;;;;10/1/2015 9:13:44 AM;1.366493;1;0;0;1443690824087;;;;;;;;;;;;;;;;;;;;;;;;;;;;6;2;00:03:30.2000000;12;48;None;None;False;RcAssistantTakeoff;18;False;False;False;True;True;2;1;0;False;Calibration;0;GpsAtti;-1635;21;8;-6;0;-1;1;32.1037367797692;34.8133685042987;0;0;0;0;False;False;1024;1024;1074;1024;1024;;;;;;;;;;;;;;;;;;;;
10.292;;;;;;;;;;;;;;;"	";"04DJA26046";"";7/29/2015 10:50:00 AM;"Phantom 3";"03Z0172712";"2.2.0";1;4;10/1/2015 9:13:44 AM;1.386321;1;0;0;1443690824182;;;;0;0;YawFollow;-1618;0;-30;;;;;;;;;;;;;;;;;;;6;2;00:03:30.3000000;12;48;None;None;False;RcAssistantTakeoff;18;False;False;False;True;True;2;1;0;False;Calibration;0;GpsAtti;-1636;23;8;-4;0;-1;1.1;32.1037366322467;34.8133686230222;0;0;0;0;False;False;1024;1024;1239;1024;1024;;;;;;;;;;;;;;;;;;;;
10.393;;;;;;;;;;;;;;;;;;;;;;;;10/1/2015 9:13:44 AM;1.407242;1;0;0;1443690824283;;;;;;;;;;;;;;;;;;;;;;;;;;;;6;2;00:03:30.4000000;12;48;None;None;False;RcAssistantTakeoff;18;False;False;False;True;True;2;1;0;False;Calibration;0;GpsAtti;-1636;22;9;-2;0;-1;1.2;32.1037364455022;34.8133685915139;0;0;0;0;False;False;1024;1024;1255;1024;1024;;;;;;;;;;;;;;;;;;;;
10.491;;;;;;;;;;;;;;;;;;;;;;;;10/1/2015 9:13:44 AM;1.428862;1.414214;0;0;1443690824381;;;;0;0;YawFollow;-1619;0;-30;;;;;;;;;;;;;;;;;;;6;2;00:03:30.5000000;12;48;None;None;False;RcAssistantTakeoff;18;False;False;False;True;True;2;1;0;False;Calibration;0;GpsAtti;-1635;18;13;-1;-1;-1;1.2;32.1037362801281;34.813368470177;0;0;0;0;False;False;1024;1024;1272;1024;1024;;;;;;;;;;;;;;;;;;;;
10.595;;;;;;;;;;;;;;;;;;;;;;;;10/1/2015 9:13:44 AM;1.449013;2.236068;0;0;1443690824485;True;Stretching;Normal;;;;;;;;;;;;;;;;;;;;;;;;;6;2;00:03:30.6000000;12;48;None;None;False;RcAssistantTakeoff;18;False;False;False;True;True;2;1;0;False;Calibration;0;GpsAtti;-1637;13;5;-3;-1;-2;1.2;32.1037362212173;34.8133686721462;0;0;0;0;False;False;1024;1024;1280;1024;1024;;;;;;;;;;;;;;;;;;;;
10.704;;;;;;;;;;;;;;;;;;;;;;;;10/1/2015 9:13:44 AM;1.474524;2.236068;0;0;1443690824594;;;;0;0;YawFollow;-1620;0;-30;;;;;;;;;;;;;;;;;;;6;2;00:03:30.7000000;12;48;None;None;False;RcAssistantTakeoff;18;False;False;False;True;True;2;1;0;False;Calibration;0;GpsAtti;-1637;2;-3;-6;-1;-2;1.3;32.1037360283479;34.8133685248148;0;0;0;0;False;False;1024;1024;1240;1024;1024;;;;;;;;;;;;;;;;;;;;
10.796;;;;;;;;;;;;;;;;;;;;;;;;10/1/2015 9:13:44 AM;1.493393;2.236068;0;0;1443690824686;;;;;;;;;;;;;;;;;;;;;;;;;;;;6;2;00:03:30.8000000;12;48;None;None;False;RcAssistantTakeoff;18;False;False;False;True;True;2;1;0;False;Calibration;0;GpsAtti;-1633;3;5;-7;-1;-2;1.3;32.1037358582049;34.8133685281587;0;0;0;0;False;False;1024;1024;1232;1024;1024;;;;;;;;;;;;;;;;;;;;
10.9;;;;;;;;;;;;;;;;;;;;;;;;10/1/2015 9:13:44 AM;1.519727;2.236068;0;0;1443690824790;;;;;;;;;;;;;;;;;;;;;;;;;;;;6;2;00:03:30.9000000;12;48;None;None;False;RcAssistantTakeoff;18;False;False;False;True;True;2;1;0;False;Calibration;0;GpsAtti;-1629;1;6;-8;-1;-2;1.4;32.1037356325554;34.8133686150991;0;0;0;0;False;False;1024;1024;1107;1024;1024;;;;;;;;;;;;;;;;;;;;
11.006;;;;;;;;;;;;;;;;;;;;;;;;10/1/2015 9:13:44 AM;1.52745;2;0;0;1443690824896;;;;0;0;YawFollow;-1621;0;-30;;;;;;;;;;;;;;;;;;;6;2;00:03:31;12;48;None;None;False;RcAssistantTakeoff;18;False;False;False;True;True;2;1;0;False;Calibration;0;GpsAtti;-1630;2;16;-7;0;-2;1.5;32.103735562944;34.813368617694;0;0;0;0;False;False;1024;1024;1024;1024;874;;;;;;;;;;;;;;;;;;;;
11.103;0;0;Normal;31.51;7/1/2015 12:00:00 AM;456;-15555;-2147483648;13;100;4385;3376;15.455;77;;;;;;;;;;10/1/2015 9:13:44 AM;1.5529;2;0;0;1443690824993;;;;;;;;;;;;;;;;;;;;;;;;;;;;6;2;00:03:31.1000000;13;48;None;None;False;RcAssistantTakeoff;18;False;False;False;True;True;2;1;0;False;Calibration;0;GpsAtti;-1629;3;27;-7;0;-2;1.6;32.1037353519724;34.8133685115272;0;0;0;0;False;False;1024;1024;1070;1024;775;;;;;;;77;15.344;0;NonGohome;None;4.41907;2577.454;10;18;0;22;660;;
11.198;;;;;;;;;;;;;;;;;;;;;;;;10/1/2015 9:13:45 AM;1.581097;1;0;0;1443690825088;;;;;;;;;;;;;;;;;;;;;;;;;;;;6;2;00:03:31.2000000;13;48;None;None;False;RcAssistantTakeoff;18;False;False;False;True;True;2;1;0;False;Calibration;0;GpsAtti;-1628;-8;38;-4;0;-1;1.7;32.1037353971007;34.813368805527;0;0;0;0;False;False;1024;1024;1056;1024;711;;;;;;;;;;;;;;;;;;;;
11.299;;;;;;;;;;;;;;;;;;;;;;;;10/1/2015 9:13:45 AM;1.599012;1;0;0;1443690825189;;;;;;;;;;;;;;;;;;;;;;;;;;;;6;2;00:03:31.3000000;13;48;None;None;False;RcAssistantTakeoff;18;False;False;False;True;True;2;1;0;False;Calibration;0;GpsAtti;-1631;-28;25;-2;0;-1;1.7;32.1037352372713;34.8133687777965;0;0;0;0;False;False;1024;1024;1049;1024;615;;;;;;;;;;;;;;;;;;;;
11.393;;;;;;;;;;;;;;;;;;;;;;;;10/1/2015 9:13:45 AM;1.615461;1;0;0;1443690825283;;;;;;;;;;;;;;;;;;;;;;;;;;;;6;2;00:03:31.4000000;13;48;None;None;False;RcAssistantTakeoff;18;False;False;False;True;True;2;1;0;False;Calibration;0;GpsAtti;-1637;-64;12;-2;0;-1;1.7;32.1037350910287;34.8133688069547;0;0;0;0;False;False;1024;1024;1070;1024;579;;;;;;;;;;;;;;;;;;;;
11.494;;;;;;;;;;;;;;;;;;;;;;;;10/1/2015 9:13:45 AM;1.648027;2.236068;0;0;1443690825384;;;;0;0;YawFollow;-1622;0;-30;;;;;;;;;;;;;;;;;;;6;2;00:03:31.5000000;12;48;None;None;False;RcAssistantTakeoff;18;False;False;False;True;True;2;1;0;False;Calibration;0;GpsAtti;-1642;-99;10;-1;2;-1;1.7;32.1037351475813;34.8133691455232;0;0;0;0;False;False;1024;1024;1062;1024;811;;;;;;;;;;;;;;;;;;;;
11.593;;;;;;;;;;;;;;;;;;;;;;;;10/1/2015 9:13:45 AM;1.696916;4.472136;0;0;1443690825483;;;;0;0;YawFollow;-1623;0;-30;;;;;;;;;;;;;;;;;;;6;2;00:03:31.6000000;12;48;None;None;False;RcAssistantTakeoff;18;False;False;False;True;True;2;1;0;False;Calibration;0;GpsAtti;-1645;-140;9;0;4;-2;1.7;32.1037349943602;34.8133696312033;0;0;0;0;False;False;1024;1024;1109;1024;940;;;;;;;;;;;;;;;;;;;;
11.695;;;;;;;;;;;;;;;;;;;;;;;;10/1/2015 9:13:45 AM;1.754916;6.708204;0;0;1443690825585;;;;;;;;;;;;;;;;;;;;;;;;;;;;6;2;00:03:31.7000000;12;48;None;None;False;RcAssistantTakeoff;18;False;False;False;True;True;2;1;0;False;Calibration;0;GpsAtti;-1645;-166;5;-1;6;-3;1.7;32.1037347449321;34.8133701713257;0;0;0;0;False;False;1024;1024;1220;1024;1024;;;;;;;;;;;;;;;;;;;;
11.794;;;;;;;;;;;;;;;;;;;;;;;;10/1/2015 9:13:45 AM;1.842987;7.615773;0;0;1443690825684;;;;0;0;YawFollow;-1624;0;-30;;;;;;;;;;;;;;;;;;;6;2;00:03:31.8000000;11;48;None;None;False;RcAssistantTakeoff;18;False;False;False;True;True;2;1;0;False;Calibration;0;GpsAtti;-1644;-99;5;-1;7;-3;1.7;32.103734603129;34.8133710894228;0;0;0;0;False;False;1024;1024;1192;1024;1024;;;;;;;;;;;;;;;;;;;;
11.894;;;;;;;;;;;;;;;;;;;;;;;;10/1/2015 9:13:45 AM;1.930095;8.544003;0;0;1443690825784;;;;0;0;YawFollow;-1625;0;-30;;;;;;;;;;;;;;;;;;;6;2;00:03:31.9000000;2;48;None;None;False;RcAssistantTakeoff;18;False;False;False;True;True;2;1;0;False;Calibration;0;GpsAtti;-1644;-26;12;-1;8;-3;1.7;32.1037342717793;34.8133719261874;0;0;0;0;False;False;1024;1024;1238;1024;1024;;;;;;;;;;;;;;;;;;;;
11.995;;;;;;;;;;;;;;;;;;;;;;;;10/1/2015 9:13:45 AM;2.040003;8.544003;0;0;1443690825885;;;;;;;;;;;;;;;;;;;;;;;;;;;;6;2;00:03:32;2;48;None;None;False;RcAssistantTakeoff;18;False;False;False;True;True;2;1;0;False;Calibration;0;GpsAtti;-1642;1;14;-3;8;-3;1.8;32.1037338697687;34.8133729905502;0;0;0;0;False;False;1024;1024;1258;1024;1024;;;;;;;;;;;;;;;;;;;;
12.093;;;;;;;;;;;;;;;;;;;;;;;;10/1/2015 9:13:45 AM;2.124637;7.615773;0;0;1443690825983;;;;;;;;;;;;;;;;;;;;;;;;;;;;6;2;00:03:32.1000000;2;48;None;None;False;RcAssistantTakeoff;18;False;False;False;True;True;2;1;0;False;Calibration;0;GpsAtti;-1637;15;17;-4;7;-3;1.8;32.1037335686924;34.8133738145071;0;0;0;0;False;False;1024;1024;1242;1024;1024;;;;;;;77;15.345;0;NonGohome;None;4.407361;2577.454;10;18;0;22;660;;
12.194;;;;;;;;;;;;;;;;;;;;;;;;10/1/2015 9:13:46 AM;2.246702;7.615773;0;0;1443690826084;;;;0;0;YawFollow;-1626;0;-30;;;;;;;;;;;;;;;;;;;6;2;00:03:32.2000000;3;48;None;None;False;RcAssistantTakeoff;18;False;False;False;True;True;2;1;0;False;Calibration;0;GpsAtti;-1633;30;18;-4;7;-3;1.8;32.1037332651517;34.81337505762;0;0;0;0;False;False;1024;1024;1192;1024;1024;;;;;;;;;;;;;;;;;;;;
12.294;;;;;;;;;;;;;;;;;;;;;;;;10/1/2015 9:13:46 AM;2.325635;6.708204;0;0;1443690826184;;;;;;;;;;;;;;;;;;;;;;;;;;;;6;2;00:03:32.3000000;3;48;None;None;False;RcAssistantTakeoff;18;False;False;False;True;True;2;1;0;False;Calibration;0;GpsAtti;-1630;38;23;-5;6;-3;1.8;32.1037329490929;34.8133758069326;0;0;0;0;False;False;1024;1024;1163;1024;1024;;;;;;;;;;;;;;;;;;;;
12.395;;;;;;;;;;;;;;;;;;;;;;;;10/1/2015 9:13:46 AM;2.431589;6.324555;0;0;1443690826285;;;;;;;;;;;;;;;;;;;;;;;;;;;;6;2;00:03:32.4000000;3;48;None;None;False;RcAssistantTakeoff;18;False;False;False;True;True;2;1;0;False;Calibration;0;GpsAtti;-1628;51;21;-4;6;-2;1.8;32.1037326432175;34.8133768704162;0;0;0;0;False;False;1024;1024;1181;1024;1024;;;;;;;;;;;;;;;;;;;;
12.492;;;;;;;;;;;;;;;;;;;;;;;;10/1/2015 9:13:46 AM;2.497553;5.385165;0;0;1443690826382;;;;;;;;;;;;;;;;;;;;;;;;;;;;6;2;00:03:32.5000000;3;48;None;None;False;RcAssistantTakeoff;18;False;False;False;True;True;2;1;0;False;Calibration;0;GpsAtti;-1627;57;23;-4;5;-2;1.9;32.1037324140304;34.8133775153365;0;0;0;0;False;False;1024;1024;1145;1024;1024;;;;;;;;;;;;;;;;;;;;
12.594;;;;;;;;;;;;;;;;;;;;;;;;10/1/2015 9:13:46 AM;2.573507;5.385165;0;0;1443690826484;;;;;;;;;;;;;;;;;;;;;;;;;;;;6;2;00:03:32.6000000;3;48;None;None;False;RcAssistantTakeoff;18;False;False;False;True;True;2;1;0;False;Calibration;0;GpsAtti;-1628;52;25;-3;5;-2;1.9;32.1037322389778;34.8133782933306;0;0;0;0;False;False;1024;1024;1130;1024;1024;;;;;;;;;;;;;;;;;;;;
12.694;;;;;;;;;;;;;;;;;;;;;;;;10/1/2015 9:13:46 AM;2.62522;4.472136;0;0;1443690826584;;;;;;;;;;;;;;;;;;;;;;;;;;;;6;2;00:03:32.7000000;2;48;None;None;False;RcAssistantTakeoff;18;False;False;False;True;True;2;1;0;False;Calibration;0;GpsAtti;-1629;48;26;-3;4;-2;2;32.1037320392411;34.8133787884199;0;0;0;0;False;False;1024;1024;1032;1024;1024;;;;;;;;;;;;;;;;;;;;
12.792;;;;;;;;;;;;;;;;;;;;;;;;10/1/2015 9:13:46 AM;2.718899;4.123106;0;0;1443690826682;;;;;;;;;;;;;;;;;;;;;;;;;;;;6;2;00:03:32.8000000;2;48;None;None;False;RcAssistantTakeoff;18;False;False;True;True;True;2;1;0;False;Calibration;0;GpsAtti;-1632;44;22;-6;4;-1;2;32.1037320548579;34.8133797807529;0;0;0;0;False;False;1024;1024;1113;1024;1024;;;;;;;;;;;;;;;;;;;;
12.943;;;;;;;;;;;;;;;;;;;;;;;;10/1/2015 9:13:46 AM;2.766171;4.123106;0;0;1443690826833;;;;;;;;;;;;;;;;;;;;;;;;;;;;6;2;00:03:32.9000000;2;48;None;None;False;RcAssistantTakeoff;18;False;False;True;True;True;2;1;0;False;Calibration;0;GpsAtti;-1634;51;13;-4;4;-1;2.1;32.1037319004668;34.8133802475865;0;0;0;0;False;False;1024;1024;1190;1024;1024;;;;;;;;;;;;;;;;;;;;
13.023;;;;;;;;;;;;;;;;;;;;;;;;10/1/2015 9:13:46 AM;2.829835;4.123106;0;0;1443690826913;;;;;;;;;;;;;;;;;;;;;;;;;;;;6;2;00:03:33;2;48;None;None;False;RcAssistantTakeoff;18;False;False;True;True;True;2;1;0;False;Calibration;0;GpsAtti;-1633;51;14;-2;4;-1;2.1;32.1037317356863;34.8133808937104;0;0;0;0;False;False;1024;1024;1247;1024;1024;;;;;;;;;;;;;;;;;;;;
13.106;0;0;Normal;31.51;7/1/2015 12:00:00 AM;456;-16732;-2147483648;13;100;4385;3376;15.362;77;;;;;;;;;;10/1/2015 9:13:46 AM;2.904591;3.162278;0;0;1443690826996;True;Folding;Protect;;;;;;;;;;;;;;;;;;;;;;;;;6;2;00:03:33.1000000;1;48;None;None;False;RcAssistantTakeoff;18;False;False;True;True;True;2;1;0;False;Calibration;0;GpsAtti;-1631;25;13;-2;3;-1;2.1;32.1037316843957;34.8133816834362;0;0;0;0;False;False;1024;1024;1240;1024;1024;;;;;;;77;15.421;0;NonGohome;None;4.395816;2577.454;10;18;0;22;660;;
13.227;;;;;;;;;;;;;;;;;;;;;;;;10/1/2015 9:13:47 AM;2.952995;4;0;0;1443690827117;;;;;;;;;;;;;;;;;;;;;;;;;;;;6;2;00:03:33.2000000;1;48;None;None;False;RcAssistantTakeoff;18;False;False;True;True;True;2;1;0;False;Calibration;0;GpsAtti;-1631;-1;8;-4;4;0;2.2;32.1037317350927;34.8133821927891;0;0;0;0;False;False;1024;1024;1197;1024;1024;;;;;;;;;;;;;;;;;;;;
13.323;;;;;;;;;;;;;;;;;;;;;;;;10/1/2015 9:13:47 AM;2.996684;4;0;0;1443690827213;;;;;;;;;;;;;;;;;;;;;;;;;;;;6;2;00:03:33.3000000;1;48;None;None;False;RcAssistantTakeoff;18;False;False;False;True;True;2;1;0;False;Calibration;0;GpsAtti;-1631;0;-3;-5;4;0;2.2;32.1037316597677;34.8133826471233;0;0;0;0;False;False;1024;1024;1024;1024;1024;;;;;;;;;;;;;;;;;;;;
13.4;;;;;;;;;;;;;;;;;;;;;;;;10/1/2015 9:13:47 AM;3.079868;4.123106;0;0;1443690827290;;;;;;;;;;;;;;;;;;;;;;;;;;;;6;2;00:03:33.4000000;1;48;None;None;False;RcAssistantTakeoff;18;False;False;False;True;True;2;1;0;False;Calibration;0;GpsAtti;-1630;5;-6;-6;4;-1;2.2;32.1037317572126;34.8133835209679;0;0;;;;;;;;;;;;;;;;;;;;;;;;;;;;;
13.514;;;;;;;;;;;;;;;;;;;;;;;;10/1/2015 9:13:47 AM;3.126646;4.123106;0;0;1443690827404;;;;;;;;;;;;;;;;;;;;;;;;;;;;6;2;00:03:33.5000000;1;48;None;None;False;RcAssistantTakeoff;18;False;False;False;True;True;2;1;0;False;Calibration;0;GpsAtti;-1626;14;-3;-6;4;-1;2.3;32.1037316305641;34.8133839937008;0;0;;;;;;;;;;;;;;;;;;;;;;;;;;;;;
13.659;;;;;;;;;;;;;;;;;;;;;;;;10/1/2015 9:13:47 AM;3.170502;4.123106;0;0;1443690827549;True;Folding;Normal;;;;;;;;;;;;;;;;;;;;;;;;;6;2;00:03:33.6000000;1;48;None;None;False;RcAssistantTakeoff;18;False;False;False;True;True;2;1;0;False;Calibration;0;GpsAtti;-1625;21;0;-3;4;-1;2.3;32.1037315579458;34.8133844504507;0;0;;;;;;;;;;;;;;;;;;;;;;;;;;;;;
13.729;;;;;;;;;;;;;;;;;;;;;;;;10/1/2015 9:13:47 AM;3.228542;4.123106;0;0;1443690827619;;;;;;;;;;;;;;;;;;;;;;;;;;;;6;2;00:03:33.7000000;0;48;None;None;False;RcAssistantTakeoff;18;False;False;False;True;True;2;1;0;False;Calibration;0;GpsAtti;-1623;25;0;-2;4;-1;2.4;32.1037314728846;34.8133850571916;0;0;0;0;False;False;1024;1024;1024;1053;995;;;;;;;;;;;;;;;;;;;;
13.796;;;;;;;;;;;;;;;;;;;;;;;;10/1/2015 9:13:47 AM;3.288686;4.123106;0;0;1443690827686;;;;;;;;;;;;;;;;;;;;;;;;;;;;6;2;00:03:33.8000000;0;48;None;None;False;RcAssistantTakeoff;18;False;False;False;True;True;2;1;0;False;Calibration;0;GpsAtti;-1623;35;-5;-1;4;-1;2.4;32.1037312679466;34.8133856471677;0;0;0;0;False;False;1024;1024;1024;1234;1024;;;;;;;;;;;;;;;;;;;;
13.891;;;;;;;;;;;;;;;;;;;;;;;;10/1/2015 9:13:47 AM;3.335735;3.605551;0;0;1443690827781;;;;;;;;;;;;;;;;;;;;;;;;;;;;6;2;00:03:33.9000000;0;48;None;None;False;RcAssistantTakeoff;18;False;False;False;True;True;2;1;0;False;Calibration;0;GpsAtti;-1625;54;-1;-1;3;-2;2.3;32.1037310799851;34.8133860940574;0;0;0;0;False;False;1024;1024;1025;1302;1024;;;;;;;;;;;;;;;;;;;;
13.991;;;;;;;;;;;;;;;;;;;;;;;;10/1/2015 9:13:47 AM;3.392516;3.605551;0;0;1443690827881;;;;;;;;;;;;;;;;;;;;;;;;;;;;6;2;00:03:34;0;48;None;None;False;RcAssistantTakeoff;18;False;False;False;True;True;2;1;0;False;Calibration;0;GpsAtti;-1627;52;-2;0;3;-2;2.3;32.1037310743884;34.8133866956016;0;0;0;0;False;False;1024;1024;1024;1313;1009;;;;;;;;;;;;;;;;;;;;
14.093;;;;;;;;;;;;;;;;;;;;;;;;10/1/2015 9:13:47 AM;3.433715;2.828427;0;0;1443690827983;;;;;;;;;;;;;;;;;;;;;;;;;;;;6;2;00:03:34.1000000;0;48;None;None;False;RcAssistantTakeoff;18;False;False;False;True;True;2;1;0;False;Calibration;0;GpsAtti;-1629;29;-30;-1;2;-2;2.4;32.1037308418291;34.8133870360029;0;0;0;0;False;False;1024;1024;1024;1325;971;;;;;;;;;;;;;;;;;;;;
14.194;;;;;;;;;;;;;;;;;;;;;;;;10/1/2015 9:13:48 AM;3.49645;4.24264;0;0;1443690828084;;;;;;;;;;;;;;;;;;;;;;;;;;;;6;2;00:03:34.2000000;0;48;None;None;False;RcAssistantTakeoff;18;False;False;False;True;True;2;1;0;False;Calibration;0;GpsAtti;-1630;16;-64;0;3;-3;2.4;32.1037305016905;34.8133875671242;0;0;0;0;False;False;1024;1024;1024;1354;974;;;;;;;;;;;;;;;;;;;;
14.293;;;;;;;;;;;;;;;;;;;;;;;;10/1/2015 9:13:48 AM;3.553811;5.385165;0;0;1443690828183;;;;;;;;;;;;;;;;;;;;;;;;;;;;6;2;00:03:34.3000000;0;48;None;None;False;RcAssistantTakeoff;18;False;False;False;True;True;2;1;0;False;Calibration;0;GpsAtti;-1631;14;-78;0;2;-5;2.3;32.1037301787243;34.8133880418452;0;0;0;0;False;False;1024;1024;1024;1371;1018;;;;;;;;;;;;;;;;;;;;
14.394;;;;;;;;;;;;;;;;;;;;;;;;10/1/2015 9:13:48 AM;3.632481;6.324555;0;0;1443690828284;;;;;;;;;;;;;;;;;;;;;;;;;;;;6;2;00:03:34.4000000;0;48;None;None;False;RcAssistantTakeoff;18;False;False;False;True;True;2;1;0;False;Calibration;0;GpsAtti;-1631;14;-86;0;2;-6;2.4;32.1037295944608;34.8133885146501;0;0;0;0;False;False;1024;1024;1024;1032;1024;;;;;;;;;;;;;;;;;;;;
14.493;;;;;;;;;;;;;;;;;;;;;;;;10/1/2015 9:13:48 AM;3.713542;8.246211;0;0;1443690828383;;;;;;;;;;;;;;;;;;;;;;;;;;;;6;2;00:03:34.5000000;0;48;None;None;False;RcAssistantTakeoff;18;False;False;False;True;True;2;1;0;False;Calibration;0;GpsAtti;-1631;13;-93;0;2;-8;2.4;32.10372890226;34.8133887907478;0;0;0;0;False;False;1024;1024;1024;1024;1024;;;;;;;;;;;;;;;;;;;;
14.592;;;;;;;;;;;;;;;;;;;;;;;;10/1/2015 9:13:48 AM;3.808995;9.219544;0;0;1443690828482;;;;;;;;;;;;;;;;;;;;;;;;;;;;6;2;00:03:34.6000000;0;48;None;None;False;RcAssistantTakeoff;18;False;False;False;True;True;2;1;0;False;Calibration;0;GpsAtti;-1632;13;-91;0;2;-9;2.4;32.1037281806388;34.8133893421059;0;0;;;;;;;;;;;;;;;;;;;;;;;;;;;;;
14.695;;;;;;;;;;;;;;;;;;;;;;;;10/1/2015 9:13:48 AM;3.916664;10.04988;0;0;1443690828585;;;;;;;;;;;;;;;;;;;;;;;;;;;;6;2;00:03:34.7000000;0;48;None;None;False;RcAssistantTakeoff;18;False;False;False;True;True;2;1;0;False;Calibration;0;GpsAtti;-1634;12;-13;0;1;-10;2.4;32.103727226599;34.8133895541702;0;0;;;;;;;;;;;;;;;;;;;;;;;;;;;;;
14.791;;;;;;;;;;;;;;;;;;;;;;;;10/1/2015 9:13:48 AM;4.037377;10.19804;0;0;1443690828681;;;;;;;;;;;;;;;;;;;;;;;;;;;;6;2;00:03:34.8000000;0;48;None;None;False;RcAssistantTakeoff;18;False;False;False;True;True;2;1;0;False;Calibration;0;GpsAtti;-1632;18;43;0;2;-10;2.4;32.1037261794012;34.8133899035236;0;0;0;0;False;False;1024;1024;1024;1024;1038;;;;;;;;;;;;;;;;;;;;
14.897;;;;;;;;;;;;;;;;;;;;;;;;10/1/2015 9:13:48 AM;4.129565;9.219544;0;0;1443690828787;;;;;;;;;;;;;;;;;;;;;;;;;;;;6;2;00:03:34.9000000;0;48;None;None;False;RcAssistantTakeoff;18;False;False;False;True;True;2;1;0;False;Calibration;0;GpsAtti;-1626;31;43;1;2;-9;2.3;32.1037254371486;34.813390343445;0;0;0;0;False;False;1024;1024;1024;1081;1536;;;;;;;;;;;;;;;;;;;;
14.993;;;;;;;;;;;;;;;;;;;;;;;;10/1/2015 9:13:48 AM;4.240144;8.246211;0;0;1443690828883;;;;;;;;;;;;;;;;;;;;;;;;;;;;6;2;00:03:35;0;48;None;None;False;RcAssistantTakeoff;18;False;False;False;True;True;2;1;0;False;Calibration;0;GpsAtti;-1623;35;56;1;2;-8;2.3;32.1037244919895;34.8133907170005;0;0;0;0;False;False;1024;1024;1024;1024;1622;;;;;;;;;;;;;;;;;;;;
15.095;0;0;Normal;31.51;7/1/2015 12:00:00 AM;456;-15690;-2147483648;13;100;4385;3376;15.421;77;;;;;;;;;;10/1/2015 9:13:48 AM;4.326023;7.28011;0;0;1443690828985;;;;0;0;YawFollow;-1627;3;-31;;;;;;;;;;;;;;;;;;;6;2;00:03:35.1000000;0;48;None;None;False;RcAssistantTakeoff;18;False;False;False;True;True;2;1;0;False;Calibration;0;GpsAtti;-1623;59;55;1;2;-7;2.2;32.1037237584772;34.8133910089347;0;0;0;0;False;False;1024;1024;1024;1024;1623;;;;;;;77;15.352;0;NonGohome;None;4.382794;2577.454;10;18;0;22;660;;
15.195;;;;;;;;;;;;;;;;;;;;;;;;10/1/2015 9:13:49 AM;4.406004;6;0;0;1443690829085;;;;0;0;YawFollow;-1638;89;-30;;;;;;;;;;;;;;;;;;;6;2;00:03:35.2000000;0;48;None;None;False;RcAssistantTakeoff;17;False;False;False;True;True;2;1;0;False;Calibration;0;GpsAtti;-1624;168;34;1;0;-6;2.2;32.1037231025516;34.8133913613763;0;0;0;0;False;False;1024;1024;1024;1024;1564;;;;;;;;;;;;;;;;;;;;
15.294;;;;;;;;;;;;;;;;;;;;;;;;10/1/2015 9:13:49 AM;4.466709;5.385165;0;0;1443690829184;;;;0;0;YawFollow;-1640;109;-30;;;;;;;;;;;;;;;;;;;6;2;00:03:35.3000000;0;48;None;None;False;RcAssistantTakeoff;17;False;False;False;True;True;2;1;0;False;Calibration;0;GpsAtti;-1624;259;32;2;-2;-5;2.2;32.1037225575061;34.813391301236;0;0;0;0;False;False;1024;1024;1024;1024;958;;;;;;;;;;;;;;;;;;;;
15.403;;;;;;;;;;;;;;;;;;;;;;;;10/1/2015 9:13:49 AM;4.53995;8.062258;0;0;1443690829293;;;;0;0;YawFollow;-1638;92;-31;;;;;;;;;;;;;;;;;;;6;2;00:03:35.4000000;2;48;None;None;False;RcAssistantTakeoff;17;False;False;False;True;True;2;1;0;False;Calibration;0;GpsAtti;-1625;267;27;1;-7;-4;2.1;32.1037220532799;34.8133908000248;0;0;0;0;False;False;1024;1024;1024;1024;1024;;;;;;;;;;;;;;;;;;;;
15.492;;;;;;;;;;;;;;;;;;;;;;;;10/1/2015 9:13:49 AM;4.639734;11.18034;0;0;1443690829382;;;;0;0;YawFollow;-1626;0;-30;;;;;;;;;;;;;;;;;;;6;2;00:03:35.5000000;2;48;None;None;False;RcAssistantTakeoff;17;False;False;False;True;True;2;1;0;False;Calibration;0;GpsAtti;-1628;235;27;0;-11;-2;2.1;32.1037217561787;34.8133898021243;0;0;;;;;;;;;;;;;;;;;;;;;;;;;;;;;
15.592;;;;;;;;;;;;;;;;;;;;;;;;10/1/2015 9:13:49 AM;4.753422;12.16553;0;0;1443690829482;True;FoldComplete;Normal;;;;;;;;;;;;;;;;;;;;;;;;;6;2;00:03:35.6000000;2;48;None;None;False;RcAssistantTakeoff;17;False;False;False;True;True;2;1;0;False;Calibration;0;GpsAtti;-1631;60;24;0;-12;-2;2.1;32.103721429309;34.8133886604891;0;0;;;;;;;;;;;;;;;;;;;;;;;;;;;;;
