RelativeTime;CenterBattery.LastStudyCycle;CenterBattery.TotalStudyCycle;CenterBattery.ConnectionStatus;CenterBattery.Temperature;CenterBattery.ProductDate;CenterBattery.SerialNumber;CenterBattery.Current;CenterBattery.ErrorType;CenterBattery.LoopNum;CenterBattery.Life;CenterBattery.FullCapacity;CenterBattery.CurrentCapacity;CenterBattery.CurrentPV;CenterBattery.RelativeCapacity;Recover.BatterySerialNumber;Recover.RemoteSerialNumber;Recover.CameraSerialNumber;Recover.ActiveTime;Recover.PlaneName;Recover.FlyControllerSerialNumber;Recover.AppVersion;Recover.AppType;Recover.DroneType;Custom.UpdateTime;Custom.Distance;Custom.HSpeed;Custom.IsVideo;Custom.IsPhoto;Custom.Timestamp;Deform.DeformProtected;Deform.TripodStatus;Deform.DeformMode;Gimbal.YawAngle;Gimbal.RollAdjust;Gimbal.Mode;Gimbal.Yaw;Gimbal.Roll;Gimbal.Pitch;Home.Height;Home.Latitude;Home.Longitude;Home.GoHomeHeight;Home.ReachedLimitHeight;Home.ReachedLimitDistance;Home.IsMultipleModeOpen;Home.IsIOCEnabled;Home.IsHomeRecord;Home.IsDynamicHomePointEnable;Home.IsCompassCeleing;Home.IsBeginnerMode;Home.HasGoHome;Home.IOCMode;Home.GoHomeStatus;Home.GoHomeMode;Home.CompassCeleStatus;Home.AirCraftHeadDirection;Osd.FlycVersion;Osd.MotorRevolution;Osd.FlyTime;Osd.SwaveHeight;Osd.Battery;Osd.NonGpsCause;Osd.MotorFailCause;Osd.MotorFailed;Osd.FlightAction;Osd.GpsNum;Osd.CanIOCWork;Osd.IsVisionUsed;Osd.IsSwaveWork;Osd.IsMotorUp;Osd.IsImuPreheated;Osd.GroundOrSky;Osd.ModeChannel;Osd.GoHomeStatus;Osd.CompassError;Osd.FlycCommand;Osd.RcState;Osd.FlycState;Osd.Yaw;Osd.Roll;Osd.Pitch;Osd.ZSpeed;Osd.YSpeed;Osd.XSpeed;Osd.Height;Osd.Latitude;Osd.Longitude;Osd.VoltageWarning;Osd.NonGpsCauseRaw;Rc.Custom2Status;Rc.Custom1Status;Rc.ShutterStatus;Rc.RecordStatus;Rc.GyroValue;Rc.Rudder;Rc.Throttle;Rc.Elevator;Rc.Aileron;RcGps.GpsStatus;RcGps.GpsNum;RcGps.YSpeed;RcGps.XSpeed;RcGps.Longitude;RcGps.Latitude;SmartBattery.Battery;SmartBattery.Voltage;SmartBattery.GoHomeCountDown;SmartBattery.SmartGoHomeStatus;SmartBattery.BatteryStatus;SmartBattery.VolumeConsume;SmartBattery.SafeFlyRadius;SmartBattery.LandBattery;SmartBattery.GoHomeBattery;SmartBattery.LandTime;SmartBattery.GoHomeTime;SmartBattery.UsefulTime;AppTip.Text;AppWarn.Text
0;;;;;;;;;;;;;;;;;;;;;;;;10/1/2015 9:09:49 AM;0;2;0;0;1443690589775;;;;0;0;YawFollow;-785;0;-37;;;;;;;;;;;;;;;;;;;6;1;00:00:00;0;69;None;None;False;RcAssistantTakeoff;17;False;False;True;True;True;0;1;0;False;Calibration;0;GpsAtti;-830;29;-83;0;0;2;0;32.1037850023697;34.8132273069588;0;0;0;0;False;False;1024;1684;364;364;364;False;0;0;0;0;0;;;;;;;;;;;;;;
0.093;;;;;;;;;;;;;;;;;;;;;;;;10/1/2015 9:09:49 AM;0.001596492;2;0;0;1443690589868;;;;;;;;;;;;;;;;;;;;;;;;;;;;6;1;00:00:00.1000000;0;69;None;None;False;RcAssistantTakeoff;17;False;False;True;True;True;0;1;0;False;Calibration;0;GpsAtti;-830;29;-83;0;0;2;0;32.1037850162792;34.8132273025933;0;0;;;;;;;;;;;;;;;;;;;;;;;;;;;;;
0.194;0;0;Normal;30.51;7/1/2015 12:00:00 AM;456;-1082;-2147483648;13;100;4385;4165;16.936;95;;;;;;;;;;10/1/2015 9:09:49 AM;0.02645572;2;0;0;1443690589969;True;FoldComplete;Protect;;;;;;;20.45674;32.1037852202863;34.8132273375532;30;False;False;False;False;True;False;False;False;False;CourseLock;0;1;0;1;6;1;00:00:00.2000000;0;69;None;None;False;RcAssistantTakeoff;17;False;False;True;True;True;0;1;0;False;Calibration;0;GpsAtti;-830;29;-83;0;0;2;0;32.1037852371821;34.8132273474745;0;0;;;;;;;;;;;;;;;;95;17.105;0;NonGohome;None;0;0;10;16;0;24;0;;
0.426;;;;;;;;;;;;;;;;;;;;;;;;10/1/2015 9:09:50 AM;0.07522389;2;0;0;1443690590201;;;;;;;;;;;;;;;;;;;;;;;;;;;;6;1;00:00:00.3000000;0;69;None;None;False;RcAssistantTakeoff;17;False;False;True;True;True;0;1;0;False;Calibration;0;GpsAtti;-830;28;-83;0;0;2;0;32.1037848016245;34.8132272759304;0;0;;;;;;;;;;;;;;;;;;;;;;;;;;;;;
0.431;;;;;;;;;;;;;;;;;;;;;;;;10/1/2015 9:09:50 AM;0.09823008;2;0;0;1443690590206;;;;;;;;;;;;;;;;;;;;;;;;;;;;6;1;00:00:00.4000000;0;69;None;None;False;RcAssistantTakeoff;17;False;False;True;True;True;0;1;0;False;Calibration;0;GpsAtti;-830;28;-83;0;0;2;0;32.1037850066734;34.8132273130669;0;0;;;;;;;;;;;;;;;;;;;;;;;;;;;;;
0.493;;;;;;;;;;;;;;;;;;;;;;;;10/1/2015 9:09:50 AM;0.1010004;2;0;0;1443690590268;;;;;;;;;;;;;;;;;;;;;;;;;;;;6;1;00:00:00.5000000;0;69;None;None;False;RcAssistantTakeoff;17;False;False;True;True;True;0;1;0;False;Calibration;0;GpsAtti;-830;29;-83;0;0;2;0;32.1037850307485;34.8132273209068;0;0;;;;;;;;;;;;;;;;;;;;;;;;;;;;;
0.592;;;;;;;;;;;;;;;;;;;;;;;;10/1/2015 9:09:50 AM;0.114899;2;0;0;1443690590367;;;;;;;;;;;;;;;;;;;;;;;;;;;;6;1;00:00:00.6000000;0;69;None;None;False;RcAssistantTakeoff;17;False;False;True;True;True;0;1;0;False;Calibration;0;GpsAtti;-830;29;-83;0;0;2;0;32.1037849075646;34.8132272937223;0;0;;;;;;;;;;;;;;;;;;;;;;;;;;;;;
0.693;;;;;;;;;;;;;;;;;;;;;;;;10/1/2015 9:09:50 AM;0.116116;2;0;0;1443690590468;;;;;;;;;;;;;;;;;;;;;;;;;;;;6;1;00:00:00.7000000;0;69;None;None;False;RcAssistantTakeoff;17;False;False;True;True;True;0;1;0;False;Calibration;0;GpsAtti;-830;29;-83;0;0;2;0;32.1037848984842;34.8132272864801;0;0;;;;;;;;;;;;;;;;;;;;;;;;;;;;;
0.797;;;;;;;;;;;;;;;;;;;;;;;;10/1/2015 9:09:50 AM;0.1391973;2;0;0;1443690590572;;;;;;;;;;;;;;;;;;;;;;;;;;;;6;1;00:00:00.8000000;0;69;None;None;False;RcAssistantTakeoff;17;False;False;True;True;True;0;1;0;False;Calibration;0;GpsAtti;-830;29;-83;0;0;2;0;32.1037851038186;34.8132273265558;0;0;;;;;;;;;;;;;;;;;;;;;;;;;;;;;
0.898;;;;;;;;;;;;;;;;;;;;;;;;10/1/2015 9:09:50 AM;0.1408172;2;0;0;1443690590673;;;;;;;;;;;;;;;;;;;;;;;;;;;;6;1;00:00:00.9000000;0;69;None;None;False;RcAssistantTakeoff;17;False;False;True;True;True;0;1;0;False;Calibration;0;GpsAtti;-830;29;-83;0;0;2;0;32.1037851184031;34.8132273275397;0;0;;;;;;;;;;;;;;;;;;;;;;;;;;;;;
0.996;;;;;;;;;;;;;;;;;;;;;;;;10/1/2015 9:09:50 AM;0.1570856;2;0;0;1443690590771;;;;;;;;;;;;;;;;;;;;;;;;;;;;6;1;00:00:01;0;69;None;None;False;RcAssistantTakeoff;17;False;False;True;True;True;0;1;0;False;Calibration;0;GpsAtti;-830;29;-83;0;0;2;0;32.1037849729825;34.8132273047458;0;0;;;;;;;;;;;;;;;;;;;;;;;;;;;;;
1.092;;;;;;;;;;;;;;;;;;;;;;;;10/1/2015 9:09:50 AM;0.1665139;2;0;0;1443690590867;;;;;;;;;;;;;;;;;;;;;;;;;;;;6;1;00:00:01.1000000;0;69;None;None;False;RcAssistantTakeoff;17;False;False;True;True;True;0;1;0;False;Calibration;0;GpsAtti;-830;29;-83;0;0;2;0;32.1037849909805;34.8132272071195;0;0;;;;;;;;;;;;;;;;;;;;;;;;;;;;;
1.194;0;0;Normal;30.51;7/1/2015 12:00:00 AM;456;-1066;-2147483648;13;100;4385;4165;16.938;95;;;;;;;;;;10/1/2015 9:09:50 AM;0.1912868;2;0;0;1443690590969;;;;;;;;;;;;;;;;;;;;;;;;;;;;6;1;00:00:01.2000000;0;69;None;None;False;RcAssistantTakeoff;17;False;False;True;True;True;0;1;0;False;Calibration;0;GpsAtti;-830;29;-83;0;0;2;0;32.103785211937;34.8132272458657;0;0;;;;;;;;;;;;;;;;95;16.989;0;NonGohome;None;0;0;10;16;0;24;0;;
1.293;;;;;;;;;;;;;;;;;;;;;;;;10/1/2015 9:09:51 AM;0.2278894;2;0;0;1443690591068;;;;;;;;;;;;;;;;;;;;;;;;;;;;6;1;00:00:01.3000000;0;69;None;None;False;RcAssistantTakeoff;17;False;False;True;True;True;0;1;0;False;Calibration;0;GpsAtti;-831;28;-84;0;0;2;0;32.103784887525;34.8132271742873;0;0;;;;;;;;;;;;;;;;;;;;;;;;;;;;;
1.393;;;;;;;;;;;;;;;;;;;;;;;;10/1/2015 9:09:51 AM;0.252376;2;0;0;1443690591168;;;;;;;;;;;;;;;;;;;;;;;;;;;;6;1;00:00:01.4000000;0;69;None;None;False;RcAssistantTakeoff;17;False;False;True;True;True;0;1;0;False;Calibration;0;GpsAtti;-831;28;-84;0;0;2;0;32.1037851055253;34.8132272156233;0;0;;;;;;;;;;;;;;;;;;;;;;;;;;;;;
1.5;;;;;;;;;;;;;;;;;;;;;;;;10/1/2015 9:09:51 AM;0.262171;2;0;0;1443690591275;;;;;;;;;;;;;;;;;;;;;;;;;;;;6;1;00:00:01.5000000;0;69;None;None;False;RcAssistantTakeoff;17;False;False;True;True;True;0;1;0;False;Calibration;0;GpsAtti;-831;28;-83;0;0;2;0;32.1037851063572;34.8132273193941;0;0;;;;;;;;;;;;;;;;;;;;;;;;;;;;;
1.597;;;;;;;;;;;;;;;;;;;;;;;;10/1/2015 9:09:51 AM;0.278905;2;0;0;1443690591372;;;;;;;;;;;;;;;;;;;;;;;;;;;;6;1;00:00:01.6000000;0;69;None;None;False;RcAssistantTakeoff;17;False;False;True;True;True;0;1;0;False;Calibration;0;GpsAtti;-831;28;-83;0;0;2;0;32.1037849562595;34.8132273010371;0;0;;;;;;;;;;;;;;;;;;;;;;;;;;;;;
1.695;;;;;;;;;;;;;;;;;;;;;;;;10/1/2015 9:09:51 AM;0.2882616;2;0;0;1443690591470;;;;;;;;;;;;;;;;;;;;;;;;;;;;6;1;00:00:01.7000000;0;69;None;None;False;RcAssistantTakeoff;17;False;False;True;True;True;0;1;0;False;Calibration;0;GpsAtti;-831;28;-81;0;0;2;0;32.1037849578238;34.8132272019242;0;0;;;;;;;;;;;;;;;;;;;;;;;;;;;;;
1.793;;;;;;;;;;;;;;;;;;;;;;;;10/1/2015 9:09:51 AM;0.312562;2;0;0;1443690591568;;;;0;0;YawFollow;-786;0;-37;;;;;;;;;;;;;;;;;;;6;1;00:00:01.8000000;0;69;None;None;False;RcAssistantTakeoff;17;False;False;True;True;True;0;1;0;False;Calibration;0;GpsAtti;-831;28;-81;0;0;2;0;32.1037851744528;34.8132272408095;0;0;;;;;;;;;;;;;;;;;;;;;;;;;;;;;
1.894;;;;;;;;;;;;;;;;;;;;;;;;10/1/2015 9:09:51 AM;0.3461428;2;0;0;1443690591669;;;;0;0;YawFollow;-785;0;-37;;;;;;;;;;;;;;;;;;;6;1;00:00:01.9000000;0;69;None;None;False;RcAssistantTakeoff;17;False;False;True;True;True;0;1;0;False;Calibration;0;GpsAtti;-831;28;-82;0;0;2;0;32.103784876254;34.8132271788061;0;0;0;0;False;False;1024;1324;718;1024;1024;;;;;;;;;;;;;;;;;;;;
1.993;;;;;;;;;;;;;;;;;;;;;;;;10/1/2015 9:09:51 AM;0.3712972;2;0;0;1443690591768;;;;0;0;YawFollow;-792;0;-37;;;;;;;;;;;;;;;;;;;6;1;00:00:02;0;69;None;None;False;RcAssistantTakeoff;17;False;False;True;True;True;0;1;0;False;Calibration;0;AssistedTakeoff;-831;28;-81;0;0;2;0;32.1037851005268;34.8132272188149;0;0;0;0;False;False;1024;1024;1024;1024;1025;;;;;;;;;;;;;;;;;;;"Tips__RC Assisted Takeoff";
2.095;;;;;;;;;;;;;;;;;;;;;;;;10/1/2015 9:09:51 AM;0.3740736;1;0;0;1443690591870;;;;0;0;YawFollow;-809;0;-37;;;;;;;;;;;;;;;;;;;6;1;00:00:02.1000000;0;69;None;None;False;RcAssistantTakeoff;17;False;False;True;True;True;0;1;0;False;Calibration;0;AssistedTakeoff;-830;23;-68;0;0;1;0;32.1037850799509;34.8132272355747;0;0;;;;;;;;;;;;;;;;;;;;;;;;;;;;;
2.196;0;0;Normal;30.51;7/1/2015 12:00:00 AM;456;-1177;-2147483648;13;100;4385;4165;16.921;95;;;;;;;;;;10/1/2015 9:09:51 AM;0.3925903;2;0;0;1443690591971;;;;0;0;YawFollow;-815;0;-37;;;;;;;;;;;;;;;;;;;6;1;00:00:02.2000000;0;69;None;None;False;RcAssistantTakeoff;17;False;False;True;True;True;0;1;0;False;Calibration;0;AssistedTakeoff;-830;23;-58;0;0;2;0;32.1037849132106;34.8132272461946;0;0;0;0;False;False;1024;1024;1024;1024;1024;;;;;;;95;16.878;0;NonGohome;None;0;0;10;16;0;23;0;;
2.302;;;;;;;;;;;;;;;;;;;;;;;;10/1/2015 9:09:52 AM;0.3952305;2;0;0;1443690592077;;;;0;0;YawFollow;-818;0;-37;;;;;;;;;;;;;;;;;;;6;1;00:00:02.3000000;0;69;None;None;False;RcAssistantTakeoff;17;False;False;True;True;True;0;1;0;False;Calibration;0;AssistedTakeoff;-830;24;-71;0;0;2;0;32.1037849329936;34.8132272306301;0;0;0;0;False;False;1024;1024;1024;1024;1025;;;;;;;;;;;;;;;;;;;;
2.395;;;;;;;;;;;;;;;;;;;;;;;;10/1/2015 9:09:52 AM;0.4194985;2;0;0;1443690592170;;;;0;0;YawFollow;-820;0;-37;;;;;;;;;;;;;;;;;;;6;1;00:00:02.4000000;0;69;None;None;False;RcAssistantTakeoff;17;False;False;True;True;True;0;1;0;False;Calibration;0;AssistedTakeoff;-830;25;-73;0;0;2;0;32.1037851503655;34.8132272604686;0;0;;;;;;;;;;;;;;;;;;;;;;;;;;;;;
2.493;;;;;;;;;;;;;;;;;;;;;;;;10/1/2015 9:09:52 AM;0.4495349;2;0;0;1443690592268;;;;0;0;YawFollow;-822;0;-37;;;;;;;;;;;;;;;;;;;6;1;00:00:02.5000000;0;69;None;None;False;RcAssistantTakeoff;17;False;False;True;True;True;0;1;0;False;Calibration;0;AssistedTakeoff;-830;24;-66;0;0;2;0;32.1037848797891;34.8132272456652;0;0;;;;;;;;;;;;;;;;;;;;;;;;;;;;;
2.593;;;;;;;;;;;;;;;;;;;;;;;;10/1/2015 9:09:52 AM;0.4739459;2;0;0;1443690592368;;;;0;0;YawFollow;-823;0;-37;;;;;;;;;;;;;;;;;;;6;1;00:00:02.6000000;0;69;None;None;False;RcAssistantTakeoff;17;False;False;True;True;True;0;1;0;False;Calibration;0;AssistedTakeoff;-830;24;-68;0;0;2;0;32.1037850986122;34.8132272739071;0;0;;;;;;;;;;;;;;;;;;;;;;;;;;;;;
2.692;;;;;;;;;;;;;;;;;;;;;;;;10/1/2015 9:09:52 AM;0.4782725;2;0;0;1443690592467;;;;;;;;;;;;;;;;;;;;;;;;;;;;6;1;00:00:02.7000000;0;69;None;None;False;RcAssistantTakeoff;17;False;False;True;True;True;0;1;0;False;Calibration;0;AssistedTakeoff;-830;24;-68;0;0;2;0;32.1037850869768;34.8132272301528;0;0;;;;;;;;;;;;;;;;;;;;;;;;;;;;;
2.793;;;;;;;;;;;;;;;;;;;;;;;;10/1/2015 9:09:52 AM;0.492315;2;0;0;1443690592568;;;;0;0;YawFollow;-824;0;-37;;;;;;;;;;;;;;;;;;;6;1;00:00:02.8000000;0;69;None;None;False;RcAssistantTakeoff;17;False;False;True;True;True;0;1;0;False;Calibration;0;AssistedTakeoff;-830;24;-68;0;0;2;0;32.1037849726204;34.8132271662441;0;0;;;;;;;;;;;;;;;;;;;;;;;;;;;;;
2.893;;;;;;;;;;;;;;;;;;;;;;;;10/1/2015 9:09:52 AM;0.5003291;2;0;0;1443690592668;;;;;;;;;;;;;;;;;;;;;;;;;;;;6;1;00:00:02.9000000;0;69;None;None;False;RcAssistantTakeoff;17;False;False;True;True;True;0;1;0;False;Calibration;0;AssistedTakeoff;-830;24;-68;0;0;2;0;32.1037849588485;34.8132272495959;0;0;;;;;;;;;;;;;;;;;;;;;;;;;;;;;
2.993;;;;;;;;;;;;;;;;;;;;;;;;10/1/2015 9:09:52 AM;0.5251442;2;0;0;1443690592768;;;;0;0;YawFollow;-825;0;-37;;;;;;;;;;;;;;;;;;;6;1;00:00:03;0;69;None;None;False;RcAssistantTakeoff;17;False;False;False;True;True;0;1;0;False;Calibration;0;AssistedTakeoff;-830;24;-69;0;0;2;0;32.1037851762126;34.8132273121196;0;0;;;;;;;;;;;;;;;;;;;;;;;;;;;;;
3.101;;;;;;;;;;;;;;;;;;;;;;;;10/1/2015 9:09:52 AM;0.5663834;2;0;0;1443690592876;;;;;;;;;;;;;;;;;;;;;;;;;;;;6;1;00:00:03.1000000;0;69;None;None;False;RcAssistantTakeoff;17;False;False;False;True;True;0;1;0;False;Calibration;0;AssistedTakeoff;-830;24;-68;0;0;2;0;32.1037848207502;34.8132271836706;0;0;;;;;;;;;;;;;;;;;;;;;;;;;;;;;
3.197;0;0;Normal;30.51;7/1/2015 12:00:00 AM;456;-3702;-2147483648;13;100;4385;4165;16.732;95;;;;;;;;;;10/1/2015 9:09:52 AM;0.5895352;2;0;0;1443690592972;True;FoldComplete;Normal;;;;;;;;;;;;;;;;;;;;;;;;;6;1;00:00:03.2000000;0;69;None;None;False;RcAssistantTakeoff;17;False;False;False;True;True;0;1;0;False;Calibration;0;AssistedTakeoff;-830;24;-66;0;0;2;0;32.1037850266701;34.8132272241665;0;0;;;;;;;;;;;;;;;;95;16.951;0;NonGohome;None;0;0;10;16;0;23;0;;
3.296;;;;;;;;;;;;;;;;;;;;;;;;10/1/2015 9:09:53 AM;0.5993443;2;0;0;1443690593071;;;;0;0;YawFollow;-826;0;-37;;;;;;;;;;;;;;;;;;;6;1;00:00:03.3000000;0;69;None;None;False;RcAssistantTakeoff;17;False;False;False;True;True;0;1;0;False;Calibration;0;AssistedTakeoff;-830;24;-67;0;0;2;0;32.1037849383849;34.8132272306725;0;0;;;;;;;;;;;;;;;;;;;;;;;;;;;;;
3.393;;;;;;;;;;;;;;;;;;;;;;;;10/1/2015 9:09:53 AM;0.6189619;2;0;0;1443690593168;;;;;;;;;;;;;;;;;;;;;;;;;;;;6;1;00:00:03.4000000;0;69;None;None;False;RcAssistantTakeoff;17;False;False;False;True;True;0;1;0;False;Calibration;0;AssistedTakeoff;-830;24;-68;0;0;2;0;32.1037847775952;34.8132271439846;0;0;;;;;;;;;;;;;;;;;;;;;;;;;;;;;
3.492;;;;;;;;;;;;;;;;;;;;;;;;10/1/2015 9:09:53 AM;0.6352821;2;0;0;1443690593267;;;;;;;;;;;;;;;;;;;;;;;;;;;;6;1;00:00:03.5000000;0;69;None;None;False;RcAssistantTakeoff;17;False;False;False;True;True;0;1;0;False;Calibration;0;AssistedTakeoff;-830;24;-67;0;0;2;0;32.1037849246597;34.8132271507339;0;0;;;;;;;;;;;;;;;;;;;;;;;;;;;;;
3.593;;;;;;;;;;;;;;;;;;;;;;;;10/1/2015 9:09:53 AM;0.6604797;2;0;0;1443690593368;;;;;;;;;;;;;;;;;;;;;;;;;;;;6;1;00:00:03.6000000;0;69;None;None;False;RcAssistantTakeoff;17;False;False;False;True;True;0;1;0;False;Calibration;0;AssistedTakeoff;-830;24;-67;0;0;2;0;32.1037851501007;34.8132271841951;0;0;0;0;False;False;1024;1024;1024;1024;1024;;;;;;;;;;;;;;;;;;;;
3.694;;;;;;;;;;;;;;;;;;;;;;;;10/1/2015 9:09:53 AM;0.6983244;2;0;0;1443690593469;;;;;;;;;;;;;;;;;;;;;;;;;;;;6;1;00:00:03.7000000;0;69;None;None;False;RcAssistantTakeoff;17;False;False;False;True;True;0;1;0;False;Calibration;0;AssistedTakeoff;-830;24;-67;0;0;2;0;32.1037848117454;34.8132272366306;0;0;0;0;False;False;1024;1024;1024;1024;1025;;;;;;;;;;;;;;;;;;;;
3.793;;;;;;;;;;;;;;;;;;;;;;;;10/1/2015 9:09:53 AM;0.7230985;2;0;0;1443690593568;;;;;;;;;;;;;;;;;;;;;;;;;;;;6;1;00:00:03.8000000;0;69;None;None;False;RcAssistantTakeoff;17;False;False;False;True;True;0;1;0;False;Calibration;0;AssistedTakeoff;-830;24;-67;0;0;2;0;32.1037850319983;34.8132272806266;0;0;0;0;False;False;1024;1024;1057;1024;1025;;;;;;;;;;;;;;;;;;;;
3.893;;;;;;;;;;;;;;;;;;;;;;;;10/1/2015 9:09:53 AM;0.7355675;2;0;0;1443690593668;;;;;;;;;;;;;;;;;;;;;;;;;;;;6;1;00:00:03.9000000;0;69;None;None;False;RcAssistantTakeoff;17;False;False;False;True;True;0;1;0;False;Calibration;0;AssistedTakeoff;-830;24;-67;0;0;2;0;32.1037849199052;34.8132272701694;0;0;0;0;False;False;1024;1024;1167;1024;1025;;;;;;;;;;;;;;;;;;;;
3.992;;;;;;;;;;;;;;;;;;;;;;;;10/1/2015 9:09:53 AM;0.7598828;2;0;0;1443690593767;;;;;;;;;;;;;;;;;;;;;;;;;;;;6;1;00:00:04;0;69;None;None;False;RcAssistantTakeoff;17;False;False;False;True;True;0;1;0;False;Calibration;0;AssistedTakeoff;-830;24;-67;0;0;2;0;32.1037851363792;34.8132273112259;0;0;0;0;False;False;1024;1024;1208;1024;1025;;;;;;;;;;;;;;;;;;;;
4.092;;;;;;;;;;;;;;;;;;;;;;;;10/1/2015 9:09:53 AM;0.7977628;2;0;0;1443690593867;;;;0;0;YawFollow;-827;0;-37;;;;;;;;;;;;;;;;;;;6;1;00:00:04.1000000;0;69;None;None;False;RcAssistantTakeoff;17;False;False;False;True;True;0;1;0;False;Calibration;0;AssistedTakeoff;-830;24;-67;0;0;2;0;32.1037847964835;34.813227271146;0;0;0;0;False;False;1024;1024;1218;1024;1025;;;;;;;;;;;;;;;;;;;;
4.192;0;0;Normal;30.51;7/1/2015 12:00:00 AM;456;-3068;-2147483648;13;100;4385;4165;16.753;95;;;;;;;;;;10/1/2015 9:09:53 AM;0.8213285;2;0;0;1443690593967;;;;;;;;;;;;;;;;;;;;;;;;;;;;6;1;00:00:04.2000000;0;69;None;None;False;RcAssistantTakeoff;17;False;False;False;True;True;0;1;0;False;Calibration;0;AssistedTakeoff;-830;24;-66;0;0;2;0;32.1037850067542;34.8132273073516;0;0;0;0;False;False;1024;1024;1081;1024;1025;;;;;;;95;16.94;0;NonGohome;None;0;0;10;16;0;23;0;;
4.297;;;;;;;;;;;;;;;;;;;;;;;;10/1/2015 9:09:54 AM;0.8222834;2;0;0;1443690594072;;;;;;;;;;;;;;;;;;;;;;;;;;;;6;1;00:00:04.3000000;0;69;None;None;False;RcAssistantTakeoff;17;False;False;False;True;True;0;1;0;False;Calibration;0;AssistedTakeoff;-830;24;-64;0;0;2;0;32.1037850150578;34.8132273100361;0;0;0;0;False;False;1024;1024;1024;1024;1025;;;;;;;;;;;;;;;;;;;;
4.393;;;;;;;;;;;;;;;;;;;;;;;;10/1/2015 9:09:54 AM;0.8386848;2;0;0;1443690594168;;;;;;;;;;;;;;;;;;;;;;;;;;;;6;1;00:00:04.4000000;0;69;None;None;False;RcAssistantTakeoff;17;False;False;False;True;True;0;1;0;False;Calibration;0;AssistedTakeoff;-830;24;-59;1;0;2;0;32.1037848686885;34.8132272850321;0;0;0;0;False;False;1024;1024;1024;1024;1024;;;;;;;;;;;;;;;;;;;;
4.492;;;;;;;;;;;;;;;;;;;;;;;;10/1/2015 9:09:54 AM;0.8401402;2;0;0;1443690594267;;;;;;;;;;;;;;;;;;;;;;;;;;;;6;1;00:00:04.5000000;0;69;None;None;False;RcAssistantTakeoff;17;False;False;False;True;True;0;1;0;False;Calibration;0;AssistedTakeoff;-830;23;-54;1;0;2;0;32.1037848707476;34.8132273002602;0;0;0;0;False;False;1024;1024;1024;1024;1025;;;;;;;;;;;;;;;;;;;;
4.593;;;;;;;;;;;;;;;;;;;;;;;;10/1/2015 9:09:54 AM;0.8646439;2;0;0;1443690594368;;;;;;;;;;;;;;;;;;;;;;;;;;;;6;1;00:00:04.6000000;0;69;None;None;False;RcAssistantTakeoff;17;False;False;False;True;True;0;1;0;False;Calibration;0;AssistedTakeoff;-830;24;-56;2;0;2;-0.1;32.1037850895117;34.813227336898;0;0;;;;;;;;;;;;;;;;;;;;;;;;;;;;;
4.694;;;;;;;;;;;;;;;;;;;;;;;;10/1/2015 9:09:54 AM;0.8993769;2;0;0;1443690594469;;;;;;;;;;;;;;;;;;;;;;;;;;;;6;1;00:00:04.7000000;0;69;None;None;False;RcAssistantTakeoff;17;False;False;False;True;True;0;1;0;False;Calibration;0;AssistedTakeoff;-830;24;-61;1;0;2;-0.1;32.1037847847201;34.8132272520836;0;0;;;;;;;;;;;;;;;;;;;;;;;;;;;;;
4.793;;;;;;;;;;;;;;;;;;;;;;;;10/1/2015 9:09:54 AM;0.924109;2;0;0;1443690594568;;;;;;;;;;;;;;;;;;;;;;;;;;;;6;1;00:00:04.8000000;0;69;None;None;False;RcAssistantTakeoff;17;False;False;False;True;True;0;1;0;False;Calibration;0;AssistedTakeoff;-830;24;-62;1;0;2;-0.1;32.103785006771;34.8132272766764;0;0;;;;;;;;;;;;;;;;;;;;;;;;;;;;;
4.893;;;;;;;;;;;;;;;;;;;;;;;;10/1/2015 9:09:54 AM;0.9346921;2;0;0;1443690594668;;;;;;;;;;;;;;;;;;;;;;;;;;;;6;1;00:00:04.9000000;0;69;None;None;False;RcAssistantTakeoff;17;False;False;False;True;True;0;1;0;False;Calibration;0;AssistedTakeoff;-830;24;-62;1;0;2;-0.1;32.1037849125997;34.8132272584677;0;0;;;;;;;;;;;;;;;;;;;;;;;;;;;;;
4.996;;;;;;;;;;;;;;;;;;;;;;;;10/1/2015 9:09:54 AM;0.9515221;2;0;0;1443690594771;;;;0;0;YawFollow;-827;1;-37;;;;;;;;;;;;;;;;;;;6;1;00:00:05;0;69;None;None;False;RcAssistantTakeoff;17;False;False;False;True;True;0;1;0;False;Calibration;0;AssistedTakeoff;-830;24;-63;1;0;2;-0.2;32.1037847632961;34.8132272264305;0;0;0;0;False;False;1024;1024;1082;1024;1025;;;;;;;;;;;;;;;;;;;;
5.094;;;;;;;;;;;;;;;;;;;;;;;;10/1/2015 9:09:54 AM;0.9595901;2;0;0;1443690594869;;;;0;0;YawFollow;-827;0;-37;;;;;;;;;;;;;;;;;;;6;1;00:00:05.1000000;0;69;None;None;False;RcAssistantTakeoff;17;False;False;False;True;True;0;1;0;False;Calibration;0;AssistedTakeoff;-830;24;-63;0;0;2;-0.1;32.1037847647515;34.8132271409692;0;0;0;0;False;False;1024;1024;1069;1024;1024;;;;;;;;;;;;;;;;;;;;
5.193;0;0;Normal;30.51;7/1/2015 12:00:00 AM;456;-2864;-2147483648;13;100;4385;4165;16.786;95;;;;;;;;;;10/1/2015 9:09:54 AM;0.9834501;2;0;0;1443690594968;;;;;;;;;;;;;;;;;;;;;;;;;;;;6;1;00:00:05.2000000;0;69;None;None;False;RcAssistantTakeoff;17;False;False;False;True;True;0;1;0;False;Calibration;0;AssistedTakeoff;-830;24;-63;0;0;2;-0.1;32.1037849783242;34.8132271717232;0;0;0;0;False;False;1024;1024;1024;1024;1025;;;;;;;95;16.938;0;NonGohome;None;0;0;10;16;0;24;0;;
5.294;;;;;;;;;;;;;;;;;;;;;;;;10/1/2015 9:09:55 AM;1.018528;2;0;0;1443690595069;;;;;;;;;;;;;;;;;;;;;;;;;;;;6;1;00:00:05.3000000;0;69;None;None;False;RcAssistantTakeoff;17;False;False;False;True;True;0;1;0;False;Calibration;0;AssistedTakeoff;-830;24;-63;0;0;2;-0.1;32.1037846662542;34.8132272325609;0;0;;;;;;;;;;;;;;;;;;;;;;;;;;;;;
5.393;;;;;;;;;;;;;;;;;;;;;;;;10/1/2015 9:09:55 AM;1.042319;2;0;0;1443690595168;;;;;;;;;;;;;;;;;;;;;;;;;;;;6;1;00:00:05.4000000;0;69;None;None;False;RcAssistantTakeoff;17;False;False;False;True;True;0;1;0;False;Calibration;0;AssistedTakeoff;-830;24;-62;0;0;2;-0.1;32.1037848786675;34.8132272680219;0;0;;;;;;;;;;;;;;;;;;;;;;;;;;;;;
5.495;;;;;;;;;;;;;;;;;;;;;;;;10/1/2015 9:09:55 AM;1.044325;2;0;0;1443690595270;;;;;;;;;;;;;;;;;;;;;;;;;;;;6;1;00:00:05.5000000;0;69;None;None;False;RcAssistantTakeoff;17;False;False;False;True;True;0;1;0;False;Calibration;0;AssistedTakeoff;-830;24;-62;0;0;2;-0.1;32.1037848961452;34.8132272735178;0;0;0;0;False;False;1024;1024;1077;1024;1025;;;;;;;;;;;;;;;;;;;;
5.594;;;;;;;;;;;;;;;;;;;;;;;;10/1/2015 9:09:55 AM;1.060843;2;0;0;1443690595369;;;;;;;;;;;;;;;;;;;;;;;;;;;;6;1;00:00:05.6000000;0;69;None;None;False;RcAssistantTakeoff;17;False;False;False;True;True;0;1;0;False;Calibration;0;AssistedTakeoff;-830;24;-62;0;0;2;-0.1;32.1037847494163;34.8132272433667;0;0;0;0;False;False;1024;1024;1124;1024;1025;;;;;;;;;;;;;;;;;;;;
5.695;;;;;;;;;;;;;;;;;;;;;;;;10/1/2015 9:09:55 AM;1.061604;2;0;0;1443690595470;;;;;;;;;;;;;;;;;;;;;;;;;;;;6;1;00:00:05.7000000;0;69;None;None;False;RcAssistantTakeoff;17;False;False;False;True;True;0;1;0;False;Calibration;0;AssistedTakeoff;-831;24;-63;0;0;2;-0.1;32.1037847425822;34.8132272426237;0;0;0;0;False;False;1024;1024;1174;1024;1025;;;;;;;;;;;;;;;;;;;;
5.794;;;;;;;;;;;;;;;;;;;;;;;;10/1/2015 9:09:55 AM;1.086112;2;0;0;1443690595569;;;;;;;;;;;;;;;;;;;;;;;;;;;;6;1;00:00:05.8000000;0;69;None;None;False;RcAssistantTakeoff;17;False;False;False;True;True;0;1;0;False;Calibration;0;AssistedTakeoff;-830;24;-63;0;0;2;-0.1;32.1037849621256;34.8132272725599;0;0;0;0;False;False;1024;1024;1163;1024;1025;;;;;;;;;;;;;;;;;;;;
5.896;;;;;;;;;;;;;;;;;;;;;;;;10/1/2015 9:09:55 AM;1.122283;2;0;0;1443690595671;;;;;;;;;;;;;;;;;;;;;;;;;;;;6;1;00:00:05.9000000;0;69;None;None;False;RcAssistantTakeoff;17;False;False;False;True;True;0;1;0;False;Calibration;0;AssistedTakeoff;-830;24;-62;0;0;2;-0.1;32.1037846387961;34.813227221932;0;0;0;0;False;False;1024;1024;1117;1024;1025;;;;;;;;;;;;;;;;;;;;
5.993;;;;;;;;;;;;;;;;;;;;;;;;10/1/2015 9:09:55 AM;1.146551;2;0;0;1443690595768;;;;;;;;;;;;;;;;;;;;;;;;;;;;6;1;00:00:06;0;69;None;None;False;RcAssistantTakeoff;17;False;False;False;True;True;0;1;0;False;Calibration;0;AssistedTakeoff;-830;24;-60;0;0;2;-0.1;32.1037848560408;34.8132272530622;0;0;0;0;False;False;1024;1024;1090;1024;1025;;;;;;;;;;;;;;;;;;;;
6.093;;;;;;;;;;;;;;;;;;;;;;;;10/1/2015 9:09:55 AM;1.154103;2;0;0;1443690595868;;;;;;;;;;;;;;;;;;;;;;;;;;;;6;1;00:00:06.1000000;0;69;None;None;False;RcAssistantTakeoff;17;False;False;False;True;True;0;1;0;False;Calibration;0;AssistedTakeoff;-830;23;-57;0;0;2;-0.1;32.1037848526591;34.8132271731506;0;0;0;0;False;False;1024;1024;1024;1024;1025;;;;;;;;;;;;;;;;;;;;
6.194;;;;;;;;;;;;;;;;;;;;;;;;10/1/2015 9:09:55 AM;1.17112;2;0;0;1443690595969;;;;;;;;;;;;;;;;;;;;;;;;;;;;6;1;00:00:06.2000000;0;69;None;None;False;RcAssistantTakeoff;17;False;False;False;True;True;0;1;0;False;Calibration;0;AssistedTakeoff;-830;24;-52;1;0;2;-0.2;32.1037846996947;34.8132271586843;0;0;;;;;;;;;;;;;;;;95;16.811;0;NonGohome;None;0;0;10;16;0;24;0;;
6.295;;;;;;;;;;;;;;;;;;;;;;;;10/1/2015 9:09:56 AM;1.185235;2;0;0;1443690596070;;;;;;;;;;;;;;;;;;;;;;;;;;;;6;1;00:00:06.3000000;0;69;None;None;False;RcAssistantTakeoff;17;False;False;False;True;True;0;1;0;False;Calibration;0;AssistedTakeoff;-830;25;-46;2;0;2;-0.3;32.1037846186053;34.8132272739548;0;0;0;0;False;False;1024;1024;1027;1024;1024;;;;;;;;;;;;;;;;;;;;
6.396;;;;;;;;;;;;;;;;;;;;;;;;10/1/2015 9:09:56 AM;1.208727;2;0;0;1443690596171;;;;;;;;;;;;;;;;;;;;;;;;;;;;6;1;00:00:06.4000000;0;69;None;None;False;RcAssistantTakeoff;17;False;False;False;True;True;0;1;0;False;Calibration;0;AssistedTakeoff;-830;24;-48;2;0;2;-0.3;32.1037848278794;34.8132273126909;0;0;0;0;False;False;1024;1024;1063;1024;1025;;;;;;;;;;;;;;;;;;;;
6.494;;;;;;;;;;;;;;;;;;;;;;;;10/1/2015 9:09:56 AM;1.242039;2;0;0;1443690596269;;;;0;0;YawFollow;-828;0;-37;;;;;;;;;;;;;;;;;;;6;1;00:00:06.5000000;0;69;None;None;False;RcAssistantTakeoff;17;False;False;False;True;True;0;1;0;False;Calibration;0;AssistedTakeoff;-830;24;-57;2;0;2;-0.3;32.1037845353558;34.8132272323767;0;0;0;0;False;False;1024;1024;1164;1024;1025;;;;;;;;;;;;;;;;;;;;
6.603;;;;;;;;;;;;;;;;;;;;;;;;10/1/2015 9:09:56 AM;1.267288;2;0;0;1443690596378;;;;0;0;YawFollow;-827;0;-37;;;;;;;;;;;;;;;;;;;6;1;00:00:06.6000000;0;69;None;None;False;RcAssistantTakeoff;17;False;False;False;True;True;0;1;0;False;Calibration;0;AssistedTakeoff;-830;24;-60;1;0;2;-0.4;32.1037847625234;34.8132272506053;0;0;0;0;False;False;1024;1024;1172;1024;1025;;;;;;;;;;;;;;;;;;;;
6.692;;;;;;;;;;;;;;;;;;;;;;;;10/1/2015 9:09:56 AM;1.270745;2;0;0;1443690596467;;;;;;;;;;;;;;;;;;;;;;;;;;;;6;1;00:00:06.7000000;0;69;None;None;False;RcAssistantTakeoff;17;False;False;False;True;True;0;1;0;False;Calibration;0;AssistedTakeoff;-830;24;-58;1;0;2;-0.3;32.1037847392194;34.8132272262724;0;0;0;0;False;False;1024;1024;1155;1024;1025;;;;;;;;;;;;;;;;;;;;
6.794;;;;;;;;;;;;;;;;;;;;;;;;10/1/2015 9:09:56 AM;1.284798;2;0;0;1443690596569;;;;;;;;;;;;;;;;;;;;;;;;;;;;6;1;00:00:06.8000000;0;69;None;None;False;RcAssistantTakeoff;17;False;False;False;True;True;0;1;0;False;Calibration;0;AssistedTakeoff;-830;24;-55;1;0;2;-0.4;32.1037846125759;34.8132272209597;0;0;0;0;False;False;1024;1024;1146;1024;1025;;;;;;;;;;;;;;;;;;;;
6.892;;;;;;;;;;;;;;;;;;;;;;;;10/1/2015 9:09:56 AM;1.289162;2;0;0;1443690596667;;;;;;;;;;;;;;;;;;;;;;;;;;;;6;1;00:00:06.9000000;0;69;None;None;False;RcAssistantTakeoff;17;False;False;False;True;True;0;1;0;False;Calibration;0;AssistedTakeoff;-830;25;-52;1;0;2;-0.4;32.1037846202893;34.8132272663062;0;0;0;0;False;False;1024;1024;1149;1024;1025;;;;;;;;;;;;;;;;;;;;
6.998;;;;;;;;;;;;;;;;;;;;;;;;10/1/2015 9:09:56 AM;1.313783;2;0;0;1443690596773;;;;;;;;;;;;;;;;;;;;;;;;;;;;6;1;00:00:07;0;69;None;None;False;RcAssistantTakeoff;17;False;False;False;True;True;0;1;0;False;Calibration;0;AssistedTakeoff;-830;25;-44;2;0;2;-0.5;32.1037848385707;34.8132273140576;0;0;0;0;False;False;1024;1024;1130;1024;1025;;;;;;;;;;;;;;;;;;;;
7.094;;;;;;;;;;;;;;;;;;;;;;;;10/1/2015 9:09:56 AM;1.316527;2;0;0;1443690596869;;;;;;;;;;;;;;;;;;;;;;;;;;;;6;1;00:00:07.1000000;0;69;None;None;False;RcAssistantTakeoff;17;False;False;False;True;True;0;1;0;False;Calibration;0;AssistedTakeoff;-829;25;-31;3;0;2;-0.5;32.1037848369278;34.8132273430597;0;0;0;0;False;False;1024;1024;1024;1024;1025;;;;;;;;;;;;;;;;;;;;
7.202;0;0;Normal;30.51;7/1/2015 12:00:00 AM;456;-2764;-2147483648;13;100;4385;4165;16.781;95;;;;;;;;;;10/1/2015 9:09:56 AM;1.333213;2.236068;0;0;1443690596977;;;;;;;;;;;;;;;;;;;;;;;;;;;;6;1;00:00:07.2000000;0;69;None;None;False;RcAssistantTakeoff;17;False;False;False;True;True;0;1;0;False;Calibration;0;AssistedTakeoff;-825;26;-7;3;1;2;-0.6;32.1037846889525;34.813227375158;0;0;;;;;;;;;;;;;;;;95;16.55;0;NonGohome;None;0;0;10;16;0;24;0;;
7.294;;;;;;;;;;;;;;;;;;;;;;;;10/1/2015 9:09:57 AM;1.347388;1.414214;0;0;1443690597069;;;;;;;;;;;;;;;;;;;;;;;;;;;;6;1;00:00:07.3000000;2;69;None;None;False;RcAssistantTakeoff;17;False;False;False;True;True;0;1;0;False;Calibration;0;AssistedTakeoff;-817;20;30;4;1;1;-0.7;32.1037845863006;34.8132274646609;0;0;;;;;;;;;;;;;;;;;;;;;;;;;;;;;
7.401;;;;;;;;;;;;;;;;;;;;;;;;10/1/2015 9:09:57 AM;1.374916;2.828427;0;0;1443690597176;;;;0;0;YawFollow;-826;0;-37;;;;;;;;;;;;;;;;;;;6;1;00:00:07.4000000;2;69;None;None;False;RcAssistantTakeoff;17;False;False;False;True;True;0;1;0;False;Calibration;0;AssistedTakeoff;-807;18;81;4;2;2;-0.8;32.1037847516506;34.8132276821995;0;0;0;0;False;False;1024;1052;1018;1024;1024;;;;;;;;;;;;;;;;;;;;
7.498;;;;;;;;;;;;;;;;;;;;;;;;10/1/2015 9:09:57 AM;1.409891;2.236068;0;0;1443690597273;;;;0;0;YawFollow;-822;0;-37;;;;;;;;;;;;;;;;;;;6;1;00:00:07.5000000;2;69;None;None;False;RcAssistantTakeoff;17;False;False;False;True;True;0;1;0;False;Calibration;0;AssistedTakeoff;-780;28;130;4;1;2;-0.8;32.1037844666455;34.8132278409127;0;0;0;0;False;False;1024;1052;788;898;1020;;;;;;;;;;;;;;;;;;;;
7.594;;;;;;;;;;;;;;;;;;;;;;;;10/1/2015 9:09:57 AM;1.441306;2.236068;0;0;1443690597369;;;;0;0;YawFollow;-799;0;-37;;;;;;;;;;;;;;;;;;;6;1;00:00:07.6000000;1;69;None;None;False;RcAssistantTakeoff;17;False;False;False;True;True;0;1;0;False;Calibration;0;AssistedTakeoff;-745;41;162;3;1;2;-0.8;32.1037846937994;34.8132280398221;0;0;0;0;False;False;1024;1230;364;1024;1025;;;;;;;;;;;;;;;;;;;;
7.693;;;;;;;;;;;;;;;;;;;;;;;;10/1/2015 9:09:57 AM;1.459906;2.236068;0;0;1443690597468;;;;0;0;YawFollow;-774;0;-37;;;;;;;;;;;;;;;;;;;6;1;00:00:07.7000000;1;69;None;None;False;RcAssistantTakeoff;17;False;False;False;True;True;0;1;0;False;Calibration;0;AssistedTakeoff;-720;53;191;3;1;2;-0.8;32.1037847786576;34.8132282098017;0;0;0;0;False;False;1024;1155;364;1024;1025;;;;;;;;;;;;;;;;;;;;
7.794;;;;;;;;;;;;;;;;;;;;;;;;10/1/2015 9:09:57 AM;1.478248;2;0;0;1443690597569;;;;0;0;YawFollow;-753;0;-37;;;;;;;;;;;;;;;;;;;6;1;00:00:07.8000000;1;69;None;None;False;RcAssistantTakeoff;17;False;False;False;True;True;0;1;0;False;Calibration;0;AssistedTakeoff;-720;58;206;2;0;2;-0.8;32.103784618967;34.8132281591617;0;0;0;0;False;False;1024;1029;364;1024;1024;;;;;;;;;;;;;;;;;;;;
7.893;;;;;;;;;;;;;;;;;;;;;;;;10/1/2015 9:09:57 AM;1.498534;1;0;0;1443690597668;;;;0;0;YawFollow;-745;0;-37;;;;;;;;;;;;;;;;;;;6;1;00:00:07.9000000;1;69;None;None;False;RcAssistantTakeoff;17;False;False;False;True;True;0;1;0;False;Calibration;0;AssistedTakeoff;-721;59;213;1;0;1;-0.8;32.1037844789938;34.8132282975536;0;0;0;0;False;False;1024;1024;364;1024;1025;;;;;;;;;;;;;;;;;;;;
7.993;;;;;;;;;;;;;;;;;;;;;;;;10/1/2015 9:09:57 AM;1.519149;2;0;0;1443690597768;;;;0;0;YawFollow;-742;0;-37;;;;;;;;;;;;;;;;;;;6;1;00:00:08;2;69;None;None;False;RcAssistantTakeoff;17;False;False;False;True;True;0;1;0;False;Calibration;0;AssistedTakeoff;-723;58;209;0;0;2;-0.8;32.103784653803;34.8132283718756;0;0;0;0;False;False;1024;1061;376;1024;1024;;;;;;;;;;;;;;;;;;;;
8.092;;;;;;;;;;;;;;;;;;;;;;;;10/1/2015 9:09:57 AM;1.559085;1;0;0;1443690597867;;;;0;0;YawFollow;-741;0;-37;;;;;;;;;;;;;;;;;;;6;1;00:00:08.1000000;2;69;None;None;False;RcAssistantTakeoff;17;False;False;False;True;True;0;1;0;False;Calibration;0;AssistedTakeoff;-724;53;189;0;0;1;-0.8;32.1037843023708;34.8132282793469;0;0;0;0;False;False;1024;1024;1159;1024;1025;;;;;;;;;;;;;;;;;;;;
8.192;0;0;Normal;30.51;7/1/2015 12:00:00 AM;456;-4421;-2147483648;13;100;4385;4165;16.719;95;;;;;;;;;;10/1/2015 9:09:57 AM;1.579844;2;0;0;1443690597967;;;;0;0;YawFollow;-740;0;-37;;;;;;;;;;;;;;;;;;;6;1;00:00:08.2000000;2;69;None;None;False;RcAssistantTakeoff;17;False;False;True;True;True;0;1;0;False;Calibration;0;AssistedTakeoff;-728;48;149;0;0;2;-0.8;32.1037844885652;34.8132282565196;0;0;0;0;False;False;1024;1024;1170;1024;1025;;;;;;;95;16.575;0;NonGohome;None;0;0;10;16;0;24;0;;
8.295;;;;;;;;;;;;;;;;;;;;;;;;10/1/2015 9:09:58 AM;1.6133;2.236068;0;0;1443690598070;;;;;;;;;;;;;;;;;;;;;;;;;;;;6;1;00:00:08.3000000;2;69;None;None;False;RcAssistantTakeoff;17;False;False;True;True;True;0;1;0;False;Calibration;0;AssistedTakeoff;-731;40;82;0;-1;2;-0.8;32.1037844017764;34.8132279170435;0;0;0;0;False;False;1024;1024;914;1024;1025;;;;;;;;;;;;;;;;;;;;
8.408;;;;;;;;;;;;;;;;;;;;;;;;10/1/2015 9:09:58 AM;1.643442;2.828427;0;0;1443690598183;;;;0;0;YawFollow;-740;0;-38;;;;;;;;;;;;;;;;;;;6;1;00:00:08.4000000;2;69;None;None;False;RcAssistantTakeoff;17;False;False;True;True;True;0;1;0;False;Calibration;0;AssistedTakeoff;-733;25;-9;1;-2;2;-0.8;32.103784201585;34.8132277010155;0;0;0;0;False;False;1024;1024;975;1024;1024;;;;;;;;;;;;;;;;;;;;
8.5;;;;;;;;;;;;;;;;;;;;;;;;10/1/2015 9:09:58 AM;1.666376;1;0;0;1443690598275;;;;0;0;YawFollow;-739;1;-37;;;;;;;;;;;;;;;;;;;6;1;00:00:08.5000000;2;69;None;None;False;RcAssistantTakeoff;17;False;False;True;True;True;0;1;0;False;Calibration;0;AssistedTakeoff;-731;13;-81;0;0;1;-0.8;32.1037843035608;34.8132274896321;0;0;0;0;False;False;1024;1024;1024;1024;1024;;;;;;;;;;;;;;;;;;;;
8.594;;;;;;;;;;;;;;;;;;;;;;;;10/1/2015 9:09:58 AM;1.686127;2.236068;0;0;1443690598369;;;;;;;;;;;;;;;;;;;;;;;;;;;;6;1;00:00:08.6000000;2;69;None;None;False;RcAssistantTakeoff;17;False;False;True;True;True;0;1;0;False;Calibration;0;AssistedTakeoff;-733;14;-80;0;1;2;-0.8;32.1037844805751;34.813227512912;0;0;0;0;False;False;1024;1024;1024;1024;1025;;;;;;;;;;;;;;;;;;;;
8.692;;;;;;;;;;;;;;;;;;;;;;;;10/1/2015 9:09:58 AM;1.707943;2.236068;0;0;1443690598467;;;;0;0;YawFollow;-739;0;-37;;;;;;;;;;;;;;;;;;;6;1;00:00:08.7000000;2;69;None;None;False;RcAssistantTakeoff;17;False;False;False;True;True;0;1;0;False;Calibration;0;AssistedTakeoff;-732;23;-33;0;2;1;-0.8;32.1037842875904;34.8132274680062;0;0;;;;;;;;;;;;;;;;;;;;;;;;;;;;;
8.793;;;;;;;;;;;;;;;;;;;;;;;;10/1/2015 9:09:58 AM;1.73374;2.236068;0;0;1443690598568;;;;;;;;;;;;;;;;;;;;;;;;;;;;6;1;00:00:08.8000000;2;69;None;None;False;RcAssistantTakeoff;17;False;False;False;True;True;0;1;0;False;Calibration;0;AssistedTakeoff;-727;24;-11;0;1;2;-0.8;32.1037844547349;34.8132276581071;0;0;;;;;;;;;;;;;;;;;;;;;;;;;;;;;
8.894;;;;;;;;;;;;;;;;;;;;;;;;10/1/2015 9:09:58 AM;1.748209;1;0;0;1443690598669;;;;;;;;;;;;;;;;;;;;;;;;;;;;6;1;00:00:08.9000000;2;69;None;None;False;RcAssistantTakeoff;17;False;False;False;True;True;0;1;0;False;Calibration;0;AssistedTakeoff;-727;23;-30;0;0;1;-0.7;32.1037843653999;34.8132275463621;0;0;;;;;;;;;;;;;;;;;;;;;;;;;;;;;
8.996;;;;;;;;;;;;;;;;;;;;;;;;10/1/2015 9:09:58 AM;1.766387;2;0;0;1443690598771;;;;0;0;YawFollow;-738;0;-37;;;;;;;;;;;;;;;;;;;6;1;00:00:09;2;69;None;None;False;RcAssistantTakeoff;17;False;False;False;True;True;0;1;0;False;Calibration;0;AssistedTakeoff;-727;20;-52;0;0;2;-0.7;32.1037842849419;34.8132273785682;0;0;;;;;;;;;;;;;;;;;;;;;;;;;;;;;
9.096;;;;;;;;;;;;;;;;;;;;;;;;10/1/2015 9:09:58 AM;1.794744;1.414214;0;0;1443690598871;;;;;;;;;;;;;;;;;;;;;;;;;;;;6;1;00:00:09.1000000;2;69;None;None;False;RcAssistantTakeoff;17;False;False;False;True;True;0;1;0;False;Calibration;0;AssistedTakeoff;-726;21;-46;0;1;1;-0.7;32.1037843012907;34.8132276783873;0;0;0;0;False;False;1024;1024;1024;1024;1024;;;;;;;;;;;;;;;;;;;;
9.199;0;0;Normal;30.51;7/1/2015 12:00:00 AM;456;-8875;-2147483648;13;100;4385;4165;16.375;95;;;;;;;;;;10/1/2015 9:09:58 AM;1.813371;2;0;0;1443690598974;;;;0;0;YawFollow;-737;0;-37;;;;;;;;;;;;;;;;;;;6;1;00:00:09.2000000;2;69;None;None;False;RcAssistantTakeoff;17;False;False;False;True;True;0;1;0;False;Calibration;0;AssistedTakeoff;-726;21;-41;0;0;2;-0.7;32.1037844490503;34.8132277722532;0;0;0;0;False;False;1024;1024;1024;1024;1025;;;;;;;95;16.934;0;NonGohome;None;0;0;10;16;0;24;0;;
9.294;;;;;;;;;;;;;;;;;;;;;;;;10/1/2015 9:09:59 AM;1.852005;1;0;0;1443690599069;;;;;;;;;;;;;;;;;;;;;;;;;;;;6;1;00:00:09.3000000;2;69;None;None;False;RcAssistantTakeoff;17;False;False;False;True;True;0;1;0;False;Calibration;0;AssistedTakeoff;-726;21;-46;0;0;1;-0.7;32.1037841713178;34.8132275251135;0;0;;;;;;;;;;;;;;;;;;;;;;;;;;;;;
9.393;;;;;;;;;;;;;;;;;;;;;;;;10/1/2015 9:09:59 AM;1.871615;2.236068;0;0;1443690599168;;;;;;;;;;;;;;;;;;;;;;;;;;;;6;1;00:00:09.4000000;2;69;None;None;False;RcAssistantTakeoff;17;False;False;False;True;True;0;1;0;False;Calibration;0;AssistedTakeoff;-726;21;-43;0;1;2;-0.7;32.103784327834;34.8132276218182;0;0;0;0;False;False;1024;1024;1024;1024;1024;;;;;;;;;;;;;;;;;;;;
9.494;;;;;;;;;;;;;;;;;;;;;;;;10/1/2015 9:09:59 AM;1.88281;1;0;0;1443690599269;;;;0;0;YawFollow;-736;0;-37;;;;;;;;;;;;;;;;;;;6;1;00:00:09.5000000;2;69;None;None;False;RcAssistantTakeoff;17;False;False;False;True;True;0;1;0;False;Calibration;0;AssistedTakeoff;-726;21;-42;0;0;1;-0.7;32.1037842521192;34.813227700271;0;0;0;0;False;False;1024;1024;1024;1024;1025;;;;;;;;;;;;;;;;;;;;
9.593;;;;;;;;;;;;;;;;;;;;;;;;10/1/2015 9:09:59 AM;1.898;2;0;0;1443690599368;;;;;;;;;;;;;;;;;;;;;;;;;;;;6;1;00:00:09.6000000;2;69;None;None;False;RcAssistantTakeoff;17;False;False;False;True;True;0;1;0;False;Calibration;0;AssistedTakeoff;-726;21;-43;0;0;2;-0.6;32.1037841154285;34.8132276897332;0;0;0;0;False;False;1024;1024;1024;1024;1024;;;;;;;;;;;;;;;;;;;;
9.693;;;;;;;;;;;;;;;;;;;;;;;;10/1/2015 9:09:59 AM;1.905818;1;0;0;1443690599468;;;;;;;;;;;;;;;;;;;;;;;;;;;;6;1;00:00:09.7000000;2;69;None;None;False;RcAssistantTakeoff;17;False;False;False;True;True;0;1;0;False;Calibration;0;AssistedTakeoff;-726;21;-44;0;0;1;-0.6;32.1037841477114;34.8132276160983;0;0;;;;;;;;;;;;;;;;;;;;;;;;;;;;;
9.792;;;;;;;;;;;;;;;;;;;;;;;;10/1/2015 9:09:59 AM;1.921887;2;0;0;1443690599567;;;;;;;;;;;;;;;;;;;;;;;;;;;;6;1;00:00:09.8000000;2;69;None;None;False;RcAssistantTakeoff;17;False;False;False;True;True;0;1;0;False;Calibration;0;AssistedTakeoff;-726;21;-43;0;0;2;-0.6;32.1037842849966;34.8132276706072;0;0;;;;;;;;;;;;;;;;;;;;;;;;;;;;;
9.893;;;;;;;;;;;;;;;;;;;;;;;;10/1/2015 9:09:59 AM;1.959967;1;0;0;1443690599668;;;;0;0;YawFollow;-735;0;-37;;;;;;;;;;;;;;;;;;;6;1;00:00:09.9000000;2;69;None;None;False;RcAssistantTakeoff;17;False;False;False;True;True;0;1;0;False;Calibration;0;AssistedTakeoff;-726;21;-43;0;0;1;-0.5;32.1037839461499;34.8132276050552;0;0;;;;;;;;;;;;;;;;;;;;;;;;;;;;;
9.993;;;;;;;;;;;;;;;"	";"04DJA26046";"";7/29/2015 10:50:00 AM;"Phantom 3";"03Z0172712";"2.2.0";1;4;10/1/2015 9:09:59 AM;1.977138;2;0;0;1443690599768;;;;;;;;;;;;;;;;;;;;;;;;;;;;6;1;00:00:10;2;69;None;None;False;RcAssistantTakeoff;17;False;False;False;True;True;0;1;0;False;Calibration;0;AssistedTakeoff;-726;21;-44;0;0;2;-0.5;32.1037840885288;34.8132276765667;0;0;;;;;;;;;;;;;;;;;;;;;;;;;;;;;
10.093;;;;;;;;;;;;;;;;;;;;;;;;10/1/2015 9:09:59 AM;1.982524;1;0;0;1443690599868;;;;;;;;;;;;;;;;;;;;;;;;;;;;6;1;00:00:10.1000000;2;69;None;None;False;RcAssistantTakeoff;17;False;False;False;True;True;0;1;0;False;Calibration;0;AssistedTakeoff;-726;21;-44;0;0;1;-0.5;32.1037841357459;34.8132276899679;0;0;0;0;False;False;1024;1024;1024;1024;1025;;;;;;;;;;;;;;;;;;;;
10.193;0;0;Normal;30.51;7/1/2015 12:00:00 AM;456;-5233;-2147483648;13;100;4385;4165;16.697;95;;;;;;;;;;10/1/2015 9:09:59 AM;2.000583;2;0;0;1443690599968;;;;;;;;;;;;;;;;;;;;;;;;;;;;6;1;00:00:10.2000000;2;69;None;None;False;RcAssistantTakeoff;17;False;False;False;True;True;0;1;0;False;Calibration;0;AssistedTakeoff;-726;21;-45;0;0;2;-0.5;32.103784287731;34.8132277587038;0;0;;;;;;;;;;;;;;;;95;16.95;0;NonGohome;None;2.465278;0;10;16;0;24;0;;
10.295;;;;;;;;;;;;;;;;;;;;;;;;10/1/2015 9:10:00 AM;2.028059;1;0;0;1443690600070;;;;;;;;;;;;;;;;;;;;;;;;;;;;6;1;00:00:10.3000000;2;69;None;None;False;RcAssistantTakeoff;17;False;False;False;True;True;0;1;0;False;Calibration;0;AssistedTakeoff;-726;21;-46;0;0;1;-0.5;32.1037840480821;34.8132276847715;0;0;;;;;;;;;;;;;;;;;;;;;;;;;;;;;
10.392;;;;;;;;;;;;;;;;;;;;;;;;10/1/2015 9:10:00 AM;2.047461;2;0;0;1443690600167;;;;0;0;YawFollow;-734;0;-37;;;;;;;;;;;;;;;;;;;6;1;00:00:10.4000000;2;69;None;None;False;RcAssistantTakeoff;17;False;False;False;True;True;0;1;0;False;Calibration;0;AssistedTakeoff;-726;21;-45;0;0;2;-0.5;32.1037842099452;34.8132277628334;0;0;0;0;False;False;1024;1024;1035;1024;1024;;;;;;;;;;;;;;;;;;;;
10.494;;;;;;;;;;;;;;;;;;;;;;;;10/1/2015 9:10:00 AM;2.049835;1;0;0;1443690600269;;;;;;;;;;;;;;;;;;;;;;;;;;;;6;1;00:00:10.5000000;2;69;None;None;False;RcAssistantTakeoff;17;False;False;False;True;True;0;1;0;False;Calibration;0;AssistedTakeoff;-726;21;-46;0;0;1;-0.5;32.1037842292413;34.8132277737447;0;0;0;0;False;False;1024;1024;1024;1024;1024;;;;;;;;;;;;;;;;;;;;
10.593;;;;;;;;;;;;;;;;;;;;;;;;10/1/2015 9:10:00 AM;2.069388;2;0;0;1443690600368;;;;;;;;;;;;;;;;;;;;;;;;;;;;6;1;00:00:10.6000000;2;69;None;None;False;RcAssistantTakeoff;17;False;False;False;True;True;0;1;0;False;Calibration;0;AssistedTakeoff;-726;21;-46;0;0;2;-0.5;32.1037840689908;34.8132276873337;0;0;0;0;False;False;1024;1024;1024;1024;1025;;;;;;;;;;;;;;;;;;;;
10.693;;;;;;;;;;;;;;;;;;;;;;;;10/1/2015 9:10:00 AM;2.075099;1;0;0;1443690600468;;;;;;;;;;;;;;;;;;;;;;;;;;;;6;1;00:00:10.7000000;2;69;None;None;False;RcAssistantTakeoff;17;False;False;False;True;True;0;1;0;False;Calibration;0;AssistedTakeoff;-726;21;-46;0;0;1;-0.5;32.1037840221167;34.8132277124197;0;0;;;;;;;;;;;;;;;;;;;;;;;;;;;;;
10.794;;;;;;;;;;;;;;;;;;;;;;;;10/1/2015 9:10:00 AM;2.092599;2;0;0;1443690600569;;;;;;;;;;;;;;;;;;;;;;;;;;;;6;1;00:00:10.8000000;2;69;None;None;False;RcAssistantTakeoff;17;False;False;False;True;True;0;1;0;False;Calibration;0;AssistedTakeoff;-726;21;-46;0;0;2;-0.5;32.1037841710374;34.8132277737829;0;0;;;;;;;;;;;;;;;;;;;;;;;;;;;;;
10.893;;;;;;;;;;;;;;;;;;;;;;;;10/1/2015 9:10:00 AM;2.120544;1;0;0;1443690600668;;;;;;;;;;;;;;;;;;;;;;;;;;;;6;1;00:00:10.9000000;2;69;None;None;False;RcAssistantTakeoff;17;False;False;True;True;True;0;1;0;False;Calibration;0;AssistedTakeoff;-726;21;-46;0;0;1;-0.5;32.1037839408577;34.8132276532656;0;0;0;0;False;False;1024;1024;1024;1024;1024;;;;;;;;;;;;;;;;;;;;
11.003;;;;;;;;;;;;;;;;;;;;;;;;10/1/2015 9:10:00 AM;2.139802;2;0;0;1443690600778;;;;0;0;YawFollow;-733;0;-37;;;;;;;;;;;;;;;;;;;6;1;00:00:11;2;69;None;None;False;RcAssistantTakeoff;17;False;False;True;True;True;0;1;0;False;Calibration;0;AssistedTakeoff;-726;21;-46;0;0;2;-0.5;32.1037841032946;34.8132277254654;0;0;;;;;;;;;;;;;;;;;;;;;;;;;;;;;
11.1;;;;;;;;;;;;;;;;;;;;;;;;10/1/2015 9:10:00 AM;2.143098;1;0;0;1443690600875;;;;;;;;;;;;;;;;;;;;;;;;;;;;6;1;00:00:11.1000000;2;69;None;None;False;RcAssistantTakeoff;17;False;False;True;True;True;0;1;0;False;Calibration;0;AssistedTakeoff;-726;21;-46;0;0;1;-0.5;32.1037841312774;34.8132277372452;0;0;;;;;;;;;;;;;;;;;;;;;;;;;;;;;
11.194;0;0;Normal;30.51;7/1/2015 12:00:00 AM;456;-2381;-2147483648;13;100;4385;4165;16.78;95;;;;;;;;;;10/1/2015 9:10:00 AM;2.15743;2;0;0;1443690600969;True;FoldComplete;Protect;;;;;;;;;;;;;;;;;;;;;;;;;6;1;00:00:11.2000000;2;69;None;None;False;RcAssistantTakeoff;17;False;False;True;True;True;0;1;0;False;Calibration;0;AssistedTakeoff;-726;21;-46;0;0;2;-0.5;32.1037840063448;34.8132276983337;0;0;;;;;;;;;;;;;;;;95;16.947;0;NonGohome;None;2.212361;0;10;16;0;24;0;;
11.297;;;;;;;;;;;;;;;;;;;;;;;;10/1/2015 9:10:01 AM;2.158869;1;0;0;1443690601072;;;;;;;;;;;;;;;;;;;;;;;;;;;;6;1;00:00:11.3000000;2;69;None;None;False;RcAssistantTakeoff;17;False;False;True;True;True;0;1;0;False;Calibration;0;AssistedTakeoff;-726;21;-46;0;0;1;-0.4;32.1037840189045;34.8132277021531;0;0;;;;;;;;;;;;;;;;;;;;;;;;;;;;;
11.401;;;;;;;;;;;;;;;;;;;;;;;;10/1/2015 9:10:01 AM;2.178114;2;0;0;1443690601176;;;;;;;;;;;;;;;;;;;;;;;;;;;;6;1;00:00:11.4000000;2;69;None;None;False;RcAssistantTakeoff;17;False;False;True;True;True;0;1;0;False;Calibration;0;AssistedTakeoff;-726;21;-46;0;0;2;-0.4;32.1037841811103;34.8132277746692;0;0;;;;;;;;;;;;;;;;;;;;;;;;;;;;;
11.494;;;;;;;;;;;;;;;;;;;;;;;;10/1/2015 9:10:01 AM;2.216098;1;0;0;1443690601269;;;;;;;;;;;;;;;;;;;;;;;;;;;;6;1;00:00:11.5000000;2;69;None;None;False;RcAssistantTakeoff;17;False;False;True;True;True;0;1;0;False;Calibration;0;AssistedTakeoff;-726;21;-46;0;0;1;-0.4;32.103783838699;34.8132277637811;0;0;;;;;;;;;;;;;;;;;;;;;;;;;;;;;
11.594;;;;;;;;;;;;;;;;;;;;;;;;10/1/2015 9:10:01 AM;2.234791;2;0;0;1443690601369;;;;;;;;;;;;;;;;;;;;;;;;;;;;6;1;00:00:11.6000000;2;69;None;None;False;RcAssistantTakeoff;17;False;False;True;True;True;0;1;0;False;Calibration;0;AssistedTakeoff;-726;21;-46;0;0;2;-0.4;32.1037839957923;34.8132278356165;0;0;;;;;;;;;;;;;;;;;;;;;;;;;;;;;
11.694;;;;;;;;;;;;;;;;;;;;;;;;10/1/2015 9:10:01 AM;2.238895;1;0;0;1443690601469;;;;;;;;;;;;;;;;;;;;;;;;;;;;6;1;00:00:11.7000000;2;69;None;None;False;RcAssistantTakeoff;17;False;False;True;True;True;0;1;0;False;Calibration;0;AssistedTakeoff;-726;21;-46;0;0;1;-0.4;32.1037840321567;34.8132278437421;0;0;0;0;False;False;1024;1024;1092;1024;1024;;;;;;;;;;;;;;;;;;;;
11.794;;;;;;;;;;;;;;;;;;;;;;;;10/1/2015 9:10:01 AM;2.26024;2;0;0;1443690601569;;;;0;0;YawFollow;-732;0;-37;;;;;;;;;;;;;;;;;;;6;1;00:00:11.8000000;2;69;None;None;False;RcAssistantTakeoff;17;False;False;True;True;True;0;1;0;False;Calibration;0;AssistedTakeoff;-726;21;-46;0;0;2;-0.4;32.1037838505647;34.8132277687266;0;0;0;0;False;False;1024;1024;1183;1024;1024;;;;;;;;;;;;;;;;;;;;
11.894;;;;;;;;;;;;;;;;;;;;;;;;10/1/2015 9:10:01 AM;2.265561;1;0;0;1443690601669;;;;;;;;;;;;;;;;;;;;;;;;;;;;6;1;00:00:11.9000000;2;69;None;None;False;RcAssistantTakeoff;17;False;False;False;True;True;0;1;0;False;Calibration;0;AssistedTakeoff;-726;21;-46;0;0;1;-0.4;32.1037838953335;34.8132277889973;0;0;0;0;False;False;1024;1024;1024;1024;1024;;;;;;;;;;;;;;;;;;;;
11.994;;;;;;;;;;;;;;;;;;;;;;;;10/1/2015 9:10:01 AM;2.286284;2;0;0;1443690601769;;;;;;;;;;;;;;;;;;;;;;;;;;;;6;1;00:00:12;2;69;None;None;False;RcAssistantTakeoff;17;False;False;False;True;True;0;1;0;False;Calibration;0;AssistedTakeoff;-726;21;-46;0;0;2;-0.4;32.1037840719941;34.8132278606357;0;0;;;;;;;;;;;;;;;;;;;;;;;;;;;;;
12.094;;;;;;;;;;;;;;;;;;;;;;;;10/1/2015 9:10:01 AM;2.315929;1;0;0;1443690601869;;;;;;;;;;;;;;;;;;;;;;;;;;;;6;1;00:00:12.1000000;2;69;None;None;False;RcAssistantTakeoff;17;False;False;False;True;True;0;1;0;False;Calibration;0;AssistedTakeoff;-726;21;-46;0;0;1;-0.4;32.1037838276;34.8132277333378;0;0;;;;;;;;;;;;;;;;;;;;;;;;;;;;;
12.196;0;0;Normal;30.51;7/1/2015 12:00:00 AM;456;-2376;-2147483648;13;100;4385;4165;16.785;95;;;;;;;;;;10/1/2015 9:10:01 AM;2.334929;2;0;0;1443690601971;True;FoldComplete;Normal;;;;;;;;;;;;;;;;;;;;;;;;;6;1;00:00:12.2000000;2;69;None;None;False;RcAssistantTakeoff;17;False;False;False;True;True;0;1;0;False;Calibration;0;AssistedTakeoff;-726;21;-46;0;0;2;-0.4;32.1037839893123;34.8132277998793;0;0;;;;;;;;;;;;;;;;95;16.944;0;NonGohome;None;2.212361;0;10;16;0;24;0;;
12.296;;;;;;;;;;;;;;;;;;;;;;;;10/1/2015 9:10:02 AM;2.339026;1;0;0;1443690602071;;;;;;;;;;;;;;;;;;;;;;;;;;;;6;1;00:00:12.3000000;2;69;None;None;False;RcAssistantTakeoff;17;False;False;False;True;True;0;1;0;False;Calibration;0;AssistedTakeoff;-726;21;-47;0;0;1;-0.4;32.1037840252057;34.8132278101552;0;0;;;;;;;;;;;;;;;;;;;;;;;;;;;;;
12.394;;;;;;;;;;;;;;;;;;;;;;;;10/1/2015 9:10:02 AM;2.356301;2;0;0;1443690602169;;;;;;;;;;;;;;;;;;;;;;;;;;;;6;1;00:00:12.4000000;2;69;None;None;False;RcAssistantTakeoff;17;False;False;False;True;True;0;1;0;False;Calibration;0;AssistedTakeoff;-725;21;-46;0;0;2;-0.4;32.1037838773346;34.8132277525675;0;0;;;;;;;;;;;;;;;;;;;;;;;;;;;;;
12.495;;;;;;;;;;;;;;;;;;;;;;;;10/1/2015 9:10:02 AM;2.36481;1;0;0;1443690602270;;;;;;;;;;;;;;;;;;;;;;;;;;;;6;1;00:00:12.5000000;2;69;None;None;False;RcAssistantTakeoff;17;False;False;False;True;True;0;1;0;False;Calibration;0;AssistedTakeoff;-725;21;-46;0;0;1;-0.4;32.1037838009252;34.813227760851;0;0;;;;;;;;;;;;;;;;;;;;;;;;;;;;;
12.594;;;;;;;;;;;;;;;;;;;;;;;;10/1/2015 9:10:02 AM;2.385015;2;0;0;1443690602369;;;;;;;;;;;;;;;;;;;;;;;;;;;;6;1;00:00:12.6000000;2;69;None;None;False;RcAssistantTakeoff;17;False;False;False;True;True;0;1;0;False;Calibration;0;AssistedTakeoff;-725;21;-46;0;0;2;-0.4;32.1037839739001;34.8132278281337;0;0;;;;;;;;;;;;;;;;;;;;;;;;;;;;;
12.695;;;;;;;;;;;;;;;;;;;;;;;;10/1/2015 9:10:02 AM;2.414788;1;0;0;1443690602470;;;;;;;;;;;;;;;;;;;;;;;;;;;;6;1;00:00:12.7000000;2;69;None;None;False;RcAssistantTakeoff;17;False;False;False;True;True;0;1;0;False;Calibration;0;AssistedTakeoff;-725;21;-46;0;0;1;-0.4;32.1037837054709;34.8132278208209;0;0;0;0;False;False;1024;1024;1024;1024;1025;;;;;;;;;;;;;;;;;;;;
12.793;;;;;;;;;;;;;;;;;;;;;;;;10/1/2015 9:10:02 AM;2.436069;2;0;0;1443690602568;;;;0;0;YawFollow;-731;0;-37;;;;;;;;;;;;;;;;;;;6;1;00:00:12.8000000;2;69;None;None;False;RcAssistantTakeoff;17;False;False;False;True;True;0;1;0;False;Calibration;0;AssistedTakeoff;-725;21;-46;0;0;2;-0.4;32.1037838881312;34.8132278899749;0;0;;;;;;;;;;;;;;;;;;;;;;;;;;;;;
12.893;;;;;;;;;;;;;;;;;;;;;;;;10/1/2015 9:10:02 AM;2.437666;1;0;0;1443690602668;;;;;;;;;;;;;;;;;;;;;;;;;;;;6;1;00:00:12.9000000;2;69;None;None;False;RcAssistantTakeoff;17;False;False;False;True;True;0;1;0;False;Calibration;0;AssistedTakeoff;-725;21;-45;0;0;1;-0.4;32.103783901976;34.8132278946192;0;0;;;;;;;;;;;;;;;;;;;;;;;;;;;;;
12.995;;;;;;;;;;;;;;;;;;;;;;;;10/1/2015 9:10:02 AM;2.452122;2;0;0;1443690602770;;;;;;;;;;;;;;;;;;;;;;;;;;;;6;1;00:00:13;2;69;None;None;False;RcAssistantTakeoff;17;False;False;False;True;True;0;1;0;False;Calibration;0;AssistedTakeoff;-725;21;-46;0;0;2;-0.4;32.103783778449;34.8132278456468;0;0;;;;;;;;;;;;;;;;;;;;;;;;;;;;;
13.097;;;;;;;;;;;;;;;;;;;;;;;;10/1/2015 9:10:02 AM;2.454326;1;0;0;1443690602872;;;;0;0;YawFollow;-732;0;-37;;;;;;;;;;;;;;;;;;;6;1;00:00:13.1000000;2;69;None;None;False;RcAssistantTakeoff;17;False;False;False;True;True;0;1;0;False;Calibration;0;AssistedTakeoff;-725;21;-46;0;0;1;-0.4;32.1037837979961;34.8132278498926;0;0;0;0;False;False;1024;1024;1024;1024;1024;;;;;;;;;;;;;;;;;;;;
13.195;0;0;Normal;30.51;7/1/2015 12:00:00 AM;456;-2393;-2147483648;13;100;4385;4165;16.789;95;;;;;;;;;;10/1/2015 9:10:02 AM;2.473925;2;0;0;1443690602970;;;;;;;;;;;;;;;;;;;;;;;;;;;;6;1;00:00:13.2000000;2;69;None;None;False;RcAssistantTakeoff;17;False;False;False;True;True;0;1;0;False;Calibration;0;AssistedTakeoff;-725;21;-45;0;0;2;-0.4;32.10378396597;34.8132279144923;0;0;0;0;False;False;1024;1024;1024;1024;1025;;;;;;;95;16.953;0;NonGohome;None;2.212361;0;10;16;0;24;0;;
13.296;;;;;;;;;;;;;;;;;;;;;;;;10/1/2015 9:10:03 AM;2.481839;1;0;0;1443690603071;;;;0;0;YawFollow;-731;0;-37;;;;;;;;;;;;;;;;;;;6;1;00:00:13.3000000;2;69;None;None;False;RcAssistantTakeoff;17;False;False;False;True;True;0;1;0;False;Calibration;0;AssistedTakeoff;-725;21;-46;0;0;1;-0.4;32.1037838949758;34.8132279230384;0;0;;;;;;;;;;;;;;;;;;;;;;;;;;;;;
13.394;;;;;;;;;;;;;;;;;;;;;;;;10/1/2015 9:10:03 AM;2.498466;2;0;0;1443690603169;;;;;;;;;;;;;;;;;;;;;;;;;;;;6;1;00:00:13.4000000;2;69;None;None;False;RcAssistantTakeoff;17;False;False;False;True;True;0;1;0;False;Calibration;0;AssistedTakeoff;-725;21;-46;0;0;2;-0.4;32.1037837524799;34.813227868213;0;0;;;;;;;;;;;;;;;;;;;;;;;;;;;;;
13.493;;;;;;;;;;;;;;;;;;;;;;;;10/1/2015 9:10:03 AM;2.501256;1;0;0;1443690603268;;;;;;;;;;;;;;;;;;;;;;;;;;;;6;1;00:00:13.5000000;2;69;None;None;False;RcAssistantTakeoff;17;False;False;False;True;True;0;1;0;False;Calibration;0;AssistedTakeoff;-725;21;-46;0;0;1;-0.4;32.1037837769068;34.8132278753322;0;0;;;;;;;;;;;;;;;;;;;;;;;;;;;;;
13.593;;;;;;;;;;;;;;;;;;;;;;;;10/1/2015 9:10:03 AM;2.520106;2;0;0;1443690603368;;;;;;;;;;;;;;;;;;;;;;;;;;;;6;1;00:00:13.6000000;2;69;None;None;False;RcAssistantTakeoff;17;False;False;False;True;True;0;1;0;False;Calibration;0;AssistedTakeoff;-725;21;-46;0;0;2;-0.4;32.1037839394057;34.8132279339441;0;0;0;0;False;False;1024;1024;1024;1024;1024;;;;;;;;;;;;;;;;;;;;
13.693;;;;;;;;;;;;;;;;;;;;;;;;10/1/2015 9:10:03 AM;2.550635;2;0;0;1443690603468;;;;;;;;;;;;;;;;;;;;;;;;;;;;6;1;00:00:13.7000000;2;69;None;None;False;RcAssistantTakeoff;17;False;False;False;True;True;0;1;0;False;Calibration;0;AssistedTakeoff;-725;21;-46;0;0;2;-0.4;32.1037836770441;34.8132278358983;0;0;0;0;False;False;1024;1024;1024;1024;1025;;;;;;;;;;;;;;;;;;;;
13.793;;;;;;;;;;;;;;;;;;;;;;;;10/1/2015 9:10:03 AM;2.572112;2;0;0;1443690603568;;;;;;;;;;;;;;;;;;;;;;;;;;;;6;1;00:00:13.8000000;3;69;None;None;False;RcAssistantTakeoff;17;False;False;False;True;True;0;1;0;False;Calibration;0;AssistedTakeoff;-725;21;-46;0;0;2;-0.4;32.1037838621939;34.8132279026682;0;0;0;0;False;False;1024;1024;1024;1024;1024;;;;;;;;;;;;;;;;;;;;
13.893;;;;;;;;;;;;;;;;;;;;;;;;10/1/2015 9:10:03 AM;2.57372;2;0;0;1443690603668;;;;;;;;;;;;;;;;;;;;;;;;;;;;6;1;00:00:13.9000000;3;69;None;None;False;RcAssistantTakeoff;17;False;False;False;True;True;0;1;0;False;Calibration;0;AssistedTakeoff;-725;21;-46;0;0;2;-0.4;32.1037838752497;34.8132279100885;0;0;;;;;;;;;;;;;;;;;;;;;;;;;;;;;
13.993;;;;;;;;;;;;;;;;;;;;;;;;10/1/2015 9:10:03 AM;2.58661;2;0;0;1443690603768;;;;;;;;;;;;;;;;;;;;;;;;;;;;6;1;00:00:14;3;69;None;None;False;RcAssistantTakeoff;17;False;False;False;True;True;0;1;0;False;Calibration;0;AssistedTakeoff;-725;21;-46;0;0;2;-0.4;32.1037837630643;34.8132278743335;0;0;;;;;;;;;;;;;;;;;;;;;;;;;;;;;
14.093;;;;;;;;;;;;;;;;;;;;;;;;10/1/2015 9:10:03 AM;2.587322;2;0;0;1443690603868;;;;;;;;;;;;;;;;;;;;;;;;;;;;6;1;00:00:14.1000000;3;69;None;None;False;RcAssistantTakeoff;17;False;False;False;True;True;0;1;0;False;Calibration;0;AssistedTakeoff;-725;21;-46;0;0;2;-0.4;32.103783766721;34.8132278681213;0;0;0;0;False;False;1024;1024;1024;1024;1025;;;;;;;;;;;;;;;;;;;;
14.195;0;0;Normal;30.51;7/1/2015 12:00:00 AM;456;-2434;-2147483648;13;100;4385;4165;16.786;95;;;;;;;;;;10/1/2015 9:10:03 AM;2.608259;2;0;0;1443690603970;;;;;;;;;;;;;;;;;;;;;;;;;;;;6;1;00:00:14.2000000;3;69;None;None;False;RcAssistantTakeoff;17;False;False;False;True;True;0;1;0;False;Calibration;0;AssistedTakeoff;-725;21;-46;0;0;2;-0.4;32.1037839463249;34.8132279365298;0;0;;;;;;;;;;;;;;;;95;16.951;0;NonGohome;None;2.212361;0;10;16;0;24;0;;
14.295;;;;;;;;;;;;;;;;;;;;;;;;10/1/2015 9:10:04 AM;2.648132;1;0;0;1443690604070;;;;;;;;;;;;;;;;;;;;;;;;;;;;6;1;00:00:14.3000000;3;69;None;None;False;RcAssistantTakeoff;17;False;False;False;True;True;0;1;0;False;Calibration;0;AssistedTakeoff;-725;21;-47;0;0;1;-0.4;32.1037835867935;34.8132279429827;0;0;;;;;;;;;;;;;;;;;;;;;;;;;;;;;
14.402;;;;;;;;;;;;;;;;;;;;;;;;10/1/2015 9:10:04 AM;2.66698;2;0;0;1443690604177;;;;;;;;;;;;;;;;;;;;;;;;;;;;6;1;00:00:14.4000000;3;69;None;None;False;RcAssistantTakeoff;17;False;False;False;True;True;0;1;0;False;Calibration;0;AssistedTakeoff;-725;21;-47;0;0;2;-0.4;32.1037837487475;34.8132280036051;0;0;;;;;;;;;;;;;;;;;;;;;;;;;;;;;
14.497;;;;;;;;;;;;;;;;;;;;;;;;10/1/2015 9:10:04 AM;2.671123;1;0;0;1443690604272;;;;0;0;YawFollow;-730;0;-37;;;;;;;;;;;;;;;;;;;6;1;00:00:14.5000000;3;69;None;None;False;RcAssistantTakeoff;17;False;False;False;True;True;0;1;0;False;Calibration;0;AssistedTakeoff;-725;21;-47;0;0;1;-0.4;32.1037837848557;34.8132280148949;0;0;0;0;False;False;1024;1024;1024;1024;1024;;;;;;;;;;;;;;;;;;;;
14.593;;;;;;;;;;;;;;;;;;;;;;;;10/1/2015 9:10:04 AM;2.692308;2;0;0;1443690604368;;;;;;;;;;;;;;;;;;;;;;;;;;;;6;1;00:00:14.6000000;3;69;None;None;False;RcAssistantTakeoff;17;False;False;False;True;True;0;1;0;False;Calibration;0;AssistedTakeoff;-725;21;-47;0;0;2;-0.4;32.1037836046619;34.813227940328;0;0;;;;;;;;;;;;;;;;;;;;;;;;;;;;;
14.694;;;;;;;;;;;;;;;;;;;;;;;;10/1/2015 9:10:04 AM;2.694669;1;0;0;1443690604469;;;;;;;;;;;;;;;;;;;;;;;;;;;;6;1;00:00:14.7000000;3;69;None;None;False;RcAssistantTakeoff;17;False;False;False;True;True;0;1;0;False;Calibration;0;AssistedTakeoff;-725;21;-46;0;0;1;-0.4;32.1037836242899;34.8132279500294;0;0;;;;;;;;;;;;;;;;;;;;;;;;;;;;;
14.795;;;;;;;;;;;;;;;;;;;;;;;;10/1/2015 9:10:04 AM;2.715314;2;0;0;1443690604570;;;;;;;;;;;;;;;;;;;;;;;;;;;;6;1;00:00:14.8000000;3;69;None;None;False;RcAssistantTakeoff;17;False;False;False;True;True;0;1;0;False;Calibration;0;AssistedTakeoff;-725;21;-46;0;0;2;-0.4;32.1037838025974;34.8132280129606;0;0;;;;;;;;;;;;;;;;;;;;;;;;;;;;;
14.894;;;;;;;;;;;;;;;;;;;;;;;;10/1/2015 9:10:04 AM;2.743712;2;0;0;1443690604669;;;;;;;;;;;;;;;;;;;;;;;;;;;;6;1;00:00:14.9000000;3;69;None;None;False;RcAssistantTakeoff;17;False;False;False;True;True;0;1;0;False;Calibration;0;AssistedTakeoff;-725;21;-47;0;0;2;-0.4;32.1037835593271;34.81322791895;0;0;0;0;False;False;1024;1024;1024;1024;1025;;;;;;;;;;;;;;;;;;;;
14.996;;;;;;;;;;;;;;;;;;;;;;;;10/1/2015 9:10:04 AM;2.767413;2;0;0;1443690604771;;;;;;;;;;;;;;;;;;;;;;;;;;;;6;1;00:00:15;3;69;None;None;False;RcAssistantTakeoff;17;False;False;False;True;True;0;1;0;False;Calibration;0;AssistedTakeoff;-725;21;-46;0;0;2;-0.4;32.1037837644923;34.8132279893399;0;0;0;0;False;False;1024;1024;1024;1024;1024;;;;;;;;;;;;;;;;;;;;
15.094;;;;;;;;;;;;;;;;;;;;;;;;10/1/2015 9:10:04 AM;2.780431;1;0;0;1443690604869;;;;;;;;;;;;;;;;;;;;;;;;;;;;6;1;00:00:15.1000000;3;69;None;None;False;RcAssistantTakeoff;17;False;False;False;True;True;0;1;0;False;Calibration;0;AssistedTakeoff;-725;21;-47;0;0;1;-0.4;32.1037836474514;34.81322797862;0;0;;;;;;;;;;;;;;;;;;;;;;;;;;;;;
15.195;0;0;Normal;30.51;7/1/2015 12:00:00 AM;456;-2386;-2147483648;13;100;4385;4165;16.786;95;;;;;;;;;;10/1/2015 9:10:04 AM;2.795222;2;0;0;1443690604970;;;;;;;;;;;;;;;;;;;;;;;;;;;;6;1;00:00:15.2000000;4;69;None;None;False;RcAssistantTakeoff;17;False;False;False;True;True;0;1;0;False;Calibration;0;AssistedTakeoff;-725;21;-47;0;0;2;-0.3;32.1037835181911;34.8132279399288;0;0;0;0;False;False;1024;1024;1024;1024;1025;;;;;;;95;16.952;0;NonGohome;None;2.212361;0;10;16;0;24;0;;
15.295;;;;;;;;;;;;;;;;;;;;;;;;10/1/2015 9:10:05 AM;2.797534;1;0;0;1443690605070;;;;;;;;;;;;;;;;;;;;;;;;;;;;6;1;00:00:15.3000000;4;69;None;None;False;RcAssistantTakeoff;17;False;False;False;True;True;0;1;0;False;Calibration;0;AssistedTakeoff;-725;21;-47;0;0;1;-0.3;32.1037835390067;34.813227938476;0;0;;;;;;;;;;;;;;;;;;;;;;;;;;;;;
15.395;;;;;;;;;;;;;;;;;;;;;;;;10/1/2015 9:10:05 AM;2.817499;2;0;0;1443690605170;;;;;;;;;;;;;;;;;;;;;;;;;;;;6;1;00:00:15.4000000;4;69;None;None;False;RcAssistantTakeoff;17;False;False;False;True;True;0;1;0;False;Calibration;0;AssistedTakeoff;-725;21;-47;0;0;2;-0.3;32.1037837121577;34.8132279964451;0;0;;;;;;;;;;;;;;;;;;;;;;;;;;;;;
15.494;;;;;;;;;;;;;;;;;;;;;;;;10/1/2015 9:10:05 AM;2.850941;1;0;0;1443690605269;;;;;;;;;;;;;;;;;;;;;;;;;;;;6;1;00:00:15.5000000;4;69;None;None;False;RcAssistantTakeoff;17;False;False;False;True;True;0;1;0;False;Calibration;0;AssistedTakeoff;-725;21;-47;0;0;1;-0.3;32.1037834230498;34.8132278956244;0;0;0;0;False;False;1024;1024;1024;1024;1024;;;;;;;;;;;;;;;;;;;;
15.594;;;;;;;;;;;;;;;;;;;;;;;;10/1/2015 9:10:05 AM;2.870753;2;0;0;1443690605369;;;;;;;;;;;;;;;;;;;;;;;;;;;;6;1;00:00:15.6000000;4;69;None;None;False;RcAssistantTakeoff;17;False;False;False;True;True;0;1;0;False;Calibration;0;AssistedTakeoff;-725;21;-47;0;0;2;-0.3;32.1037835966505;34.8132279452723;0;0;0;0;False;False;1024;1024;1024;1024;1025;;;;;;;;;;;;;;;;;;;;
15.694;;;;;;;;;;;;;;;;;;;;;;;;10/1/2015 9:10:05 AM;2.884452;1;0;0;1443690605469;;;;;;;;;;;;;;;;;;;;;;;;;;;;6;1;00:00:15.7000000;4;69;None;None;False;RcAssistantTakeoff;17;False;False;False;True;True;0;1;0;False;Calibration;0;AssistedTakeoff;-725;21;-47;0;0;1;-0.3;32.1037835201796;34.8132280592614;0;0;0;0;False;False;1024;1024;1024;1024;1024;;;;;;;;;;;;;;;;;;;;
15.794;;;;;;;;;;;;;;;;;;;;;;;;10/1/2015 9:10:05 AM;2.901906;2;0;0;1443690605569;;;;;;;;;;;;;;;;;;;;;;;;;;;;6;1;00:00:15.8000000;4;69;None;None;False;RcAssistantTakeoff;17;False;False;False;True;True;0;1;0;False;Calibration;0;AssistedTakeoff;-725;21;-47;0;0;2;-0.3;32.1037833698563;34.813228004452;0;0;;;;;;;;;;;;;;;;;;;;;;;;;;;;;
15.894;;;;;;;;;;;;;;;;;;;;;;;;10/1/2015 9:10:05 AM;2.905859;2;0;0;1443690605669;;;;;;;;;;;;;;;;;;;;;;;;;;;;6;1;00:00:15.9000000;4;69;None;None;False;RcAssistantTakeoff;17;False;False;False;True;True;0;1;0;False;Calibration;0;AssistedTakeoff;-725;21;-47;0;0;2;-0.4;32.1037834050499;34.8132280111291;0;0;0;0;False;False;1024;1024;1024;1024;1025;;;;;;;;;;;;;;;;;;;;
