RelativeTime;CenterBattery.LastStudyCycle;CenterBattery.TotalStudyCycle;CenterBattery.ConnectionStatus;CenterBattery.Temperature;CenterBattery.ProductDate;CenterBattery.SerialNumber;CenterBattery.Current;CenterBattery.ErrorType;CenterBattery.LoopNum;CenterBattery.Life;CenterBattery.FullCapacity;CenterBattery.CurrentCapacity;CenterBattery.CurrentPV;CenterBattery.RelativeCapacity;Recover.BatterySerialNumber;Recover.RemoteSerialNumber;Recover.CameraSerialNumber;Recover.ActiveTime;Recover.PlaneName;Recover.FlyControllerSerialNumber;Recover.AppVersion;Recover.AppType;Recover.DroneType;Custom.UpdateTime;Custom.Distance;Custom.HSpeed;Custom.IsVideo;Custom.IsPhoto;Custom.Timestamp;Deform.DeformProtected;Deform.TripodStatus;Deform.DeformMode;Gimbal.YawAngle;Gimbal.RollAdjust;Gimbal.Mode;Gimbal.Yaw;Gimbal.Roll;Gimbal.Pitch;Home.Height;Home.Latitude;Home.Longitude;Home.GoHomeHeight;Home.ReachedLimitHeight;Home.ReachedLimitDistance;Home.IsMultipleModeOpen;Home.IsIOCEnabled;Home.IsHomeRecord;Home.IsDynamicHomePointEnable;Home.IsCompassCeleing;Home.IsBeginnerMode;Home.HasGoHome;Home.IOCMode;Home.GoHomeStatus;Home.GoHomeMode;Home.CompassCeleStatus;Home.AirCraftHeadDirection;Osd.FlycVersion;Osd.MotorRevolution;Osd.FlyTime;Osd.SwaveHeight;Osd.Battery;Osd.NonGpsCause;Osd.MotorFailCause;Osd.MotorFailed;Osd.FlightAction;Osd.GpsNum;Osd.CanIOCWork;Osd.IsVisionUsed;Osd.IsSwaveWork;Osd.IsMotorUp;Osd.IsImuPreheated;Osd.GroundOrSky;Osd.ModeChannel;Osd.GoHomeStatus;Osd.CompassError;Osd.FlycCommand;Osd.RcState;Osd.FlycState;Osd.Yaw;Osd.Roll;Osd.Pitch;Osd.ZSpeed;Osd.YSpeed;Osd.XSpeed;Osd.Height;Osd.Latitude;Osd.Longitude;Osd.VoltageWarning;Osd.NonGpsCauseRaw;Rc.Custom2Status;Rc.Custom1Status;Rc.ShutterStatus;Rc.RecordStatus;Rc.GyroValue;Rc.Rudder;Rc.Throttle;Rc.Elevator;Rc.Aileron;RcGps.GpsStatus;RcGps.GpsNum;RcGps.YSpeed;RcGps.XSpeed;RcGps.Longitude;RcGps.Latitude;SmartBattery.Battery;SmartBattery.Voltage;SmartBattery.GoHomeCountDown;SmartBattery.SmartGoHomeStatus;SmartBattery.BatteryStatus;SmartBattery.VolumeConsume;SmartBattery.SafeFlyRadius;SmartBattery.LandBattery;SmartBattery.GoHomeBattery;SmartBattery.LandTime;SmartBattery.GoHomeTime;SmartBattery.UsefulTime;AppTip.Text;AppWarn.Text
0;;;;;;;;;;;;;;;;;;;;;;;;10/1/2015 9:20:37 AM;0;0;0;0;1443691237960;;;;0;0;YawFollow;588;0;-30;;;;;;;;;;;;;;;;;;;6;3;00:09:48.7000000;0;210;None;None;False;RcAssistantTakeoff;19;False;False;True;True;True;0;1;0;False;Calibration;0;GpsAtti;543;-4;-82;0;0;0;0;32.1038534082892;34.8132448776447;0;0;0;0;False;False;1024;1684;364;364;364;;;;;;;;;;;;;;;;;;;;
0.072;0;0;Normal;32.91;7/1/2015 12:00:00 AM;456;-1154;-2147483648;13;100;4385;1490;15.03;34;;;;;;;;;;10/1/2015 9:20:38 AM;0.00942713;1;0;0;1443691238032;True;FoldComplete;Protect;;;;;;;16.37418;32.1038533746096;34.8132448785614;30;False;False;False;False;True;False;False;False;False;CourseLock;0;1;0;1;6;3;00:09:48.8000000;0;210;None;None;False;RcAssistantTakeoff;19;False;False;True;True;True;0;1;0;False;Calibration;0;GpsAtti;543;-4;-82;0;0;1;0;32.1038533242925;34.8132448930522;0;0;;;;;;;;;;;;;;;;34;15.213;0;NonGohome;None;4.885649;0;10;16;0;23;0;;
0.276;;;;;;;;;;;;;;;;;;;;;;;;10/1/2015 9:20:38 AM;0.01419976;0;0;0;1443691238236;;;;;;;;;;;;;;;;;;;;;;;;;;;;6;3;00:09:48.9000000;0;210;None;None;False;RcAssistantTakeoff;19;False;False;True;True;True;0;1;0;False;Calibration;0;GpsAtti;542;-4;-82;0;0;0;0;32.1038533672953;34.8132448909541;0;0;;;;;;;;;;;;;;;;;;;;;;;;;;;;;
0.285;;;;;;;;;;;;;;;;;;;;;;;;10/1/2015 9:20:38 AM;0.01896223;0;0;0;1443691238245;;;;;;;;;;;;;;;;;;;;;;;;;;;;6;3;00:09:49;0;210;None;None;False;RcAssistantTakeoff;19;False;False;True;True;True;0;1;0;False;Calibration;0;GpsAtti;542;-4;-83;0;0;0;0;32.1038534101637;34.8132448878797;0;0;;;;;;;;;;;;;;;;;;;;;;;;;;;;;
0.378;;;;;;;;;;;;;;;;;;;;;;;;10/1/2015 9:20:38 AM;0.02820189;0;0;0;1443691238338;;;;0;0;YawFollow;587;0;-30;;;;;;;;;;;;;;;;;;;6;3;00:09:49.1000000;0;210;None;None;False;RcAssistantTakeoff;19;False;False;True;True;True;0;1;0;False;Calibration;0;GpsAtti;542;-4;-83;0;0;0;0;32.1038533270428;34.8132448947076;0;0;;;;;;;;;;;;;;;;;;;;;;;;;;;;;
0.505;;;;;;;;;;;;;;;;;;;;;;;;10/1/2015 9:20:38 AM;0.03280075;0;0;0;1443691238465;;;;0;0;YawFollow;587;0;-31;;;;;;;;;;;;;;;;;;;6;3;00:09:49.2000000;0;210;None;None;False;RcAssistantTakeoff;19;False;False;True;True;True;0;1;0;False;Calibration;0;GpsAtti;542;-4;-83;0;0;0;0;32.1038533683897;34.8132448909141;0;0;;;;;;;;;;;;;;;;;;;;;;;;;;;;;
0.595;;;;;;;;;;;;;;;;;;;;;;;;10/1/2015 9:20:38 AM;0.03744119;0;0;0;1443691238555;;;;0;0;YawFollow;587;0;-30;;;;;;;;;;;;;;;;;;;6;3;00:09:49.3000000;0;210;None;None;False;RcAssistantTakeoff;19;False;False;True;True;True;0;1;0;False;Calibration;0;GpsAtti;542;-4;-83;0;0;0;0;32.1038534101332;34.8132448874457;0;0;;;;;;;;;;;;;;;;;;;;;;;;;;;;;
0.666;;;;;;;;;;;;;;;;;;;;;;;;10/1/2015 9:20:38 AM;0.04220179;0;0;0;1443691238626;;;;;;;;;;;;;;;;;;;;;;;;;;;;6;3;00:09:49.4000000;0;210;None;None;False;RcAssistantTakeoff;19;False;False;True;True;True;0;1;0;False;Calibration;0;GpsAtti;542;-4;-84;0;0;0;0;32.1038534529972;34.8132448846217;0;0;0;0;False;False;1024;1684;364;364;367;;;;;;;;;;;;;;;;;;;;
0.755;;;;;;;;;;;;;;;;;;;;;;;;10/1/2015 9:20:38 AM;0.05274413;0;0;0;1443691238715;;;;;;;;;;;;;;;;;;;;;;;;;;;;6;3;00:09:49.5000000;0;210;None;None;False;RcAssistantTakeoff;19;False;False;True;True;True;0;1;0;False;Calibration;0;GpsAtti;542;-3;-84;0;0;0;0;32.1038533579384;34.813244882798;0;0;0;0;False;False;1024;1195;956;1024;1024;;;;;;;;;;;;;;;;;;;;
0.842;;;;;;;;;;;;;;;;;;;;;;;;10/1/2015 9:20:38 AM;0.05754122;0;0;0;1443691238802;;;;0;0;YawFollow;576;0;-30;;;;;;;;;;;;;;;;;;;6;3;00:09:49.6000000;0;210;None;None;False;RcAssistantTakeoff;19;False;False;True;True;True;0;1;0;False;Calibration;0;GpsAtti;542;-4;-84;0;0;0;0;32.1038534010528;34.8132448786255;0;0;0;0;False;False;1024;1024;1024;1024;1024;;;;;;;;;;;;;;;;;;;;
0.947;;;;;;;;;;;;;;;;;;;;;;;;10/1/2015 9:20:38 AM;0.06849834;0;0;0;1443691238907;;;;0;0;YawFollow;561;0;-31;;;;;;;;;;;;;;;;;;;6;3;00:09:49.7000000;0;210;None;None;False;RcAssistantTakeoff;19;False;False;True;True;True;0;1;0;False;Calibration;0;GpsAtti;542;-3;-84;0;0;0;0;32.1038534427659;34.8132447733889;0;0;;;;;;;;;;;;;;;;;;;;;;;;;;;;;
1.05;0;0;Normal;32.91;7/1/2015 12:00:00 AM;456;-1118;-2147483648;13;100;4385;1490;15.033;34;;;;;;;;;;10/1/2015 9:20:39 AM;0.07873641;0;0;0;1443691239010;;;;0;0;YawFollow;556;0;-30;;;;;;;;;;;;;;;;;;;6;3;00:09:49.8000000;0;210;None;None;False;RcAssistantTakeoff;19;False;False;True;True;True;0;1;0;False;Calibration;0;GpsAtti;541;-3;-84;0;0;0;0;32.1038533508602;34.8132447630325;0;0;;;;;;;;;;;;;;;;34;15.197;0;NonGohome;None;4.885649;0;10;16;0;24;0;;
1.191;;;;;;;;;;;;;;;;;;;;;;;;10/1/2015 9:20:39 AM;0.08342114;0;0;0;1443691239151;;;;0;0;YawFollow;553;0;-31;;;;;;;;;;;;;;;;;;;6;3;00:09:49.9000000;0;210;None;None;False;RcAssistantTakeoff;19;False;False;True;True;True;0;1;0;False;Calibration;0;GpsAtti;542;-3;-84;0;0;0;0;32.1038533930774;34.8132447611616;0;0;;;;;;;;;;;;;;;;;;;;;;;;;;;;;
1.353;;;;;;;;;;;;;;;;;;;;;;;;10/1/2015 9:20:39 AM;0.09288216;1;0;0;1443691239313;;;;0;0;YawFollow;550;0;-31;;;;;;;;;;;;;;;;;;;6;3;00:09:50.1000000;0;210;None;None;False;RcAssistantTakeoff;19;False;False;True;True;True;0;1;0;False;Calibration;0;GpsAtti;542;10;-111;0;0;1;0;32.1038533556801;34.8132448512565;0;0;;;;;;;;;;;;;;;;;;;;;;;;;;;;;
1.441;;;;;;;;;;;;;;;;;;;;;;;;10/1/2015 9:20:39 AM;0.1019459;1;0;0;1443691239401;;;;0;0;YawFollow;548;1;-31;;;;;;;;;;;;;;;;;;;6;3;00:09:50.2000000;0;210;None;None;False;RcAssistantTakeoff;19;False;False;True;True;True;0;1;0;False;Calibration;0;GpsAtti;540;9;-132;0;0;1;0;32.1038534287656;34.8132448942543;0;0;;;;;;;;;;;;;;;;;;;;;;;;;;;;;
1.542;;;;;;;;;;;;;;;;;;;;;;;;10/1/2015 9:20:39 AM;0.1109709;1;0;0;1443691239502;;;;0;0;YawFollow;548;1;-30;;;;;;;;;;;;;;;;;;;6;3;00:09:50.3000000;0;210;None;None;False;RcAssistantTakeoff;19;False;False;True;True;True;0;1;0;False;Calibration;0;GpsAtti;539;9;-152;0;0;1;0;32.1038535095341;34.8132449060282;0;0;;;;;;;;;;;;;;;;;;;;;;;;;;;;;
1.642;;;;;;;;;;;;;;;;;;;;;;;;10/1/2015 9:20:39 AM;0.1204758;1;0;0;1443691239602;;;;0;0;YawFollow;547;0;-30;;;;;;;;;;;;;;;;;;;6;3;00:09:50.4000000;0;210;None;None;False;RcAssistantTakeoff;19;False;False;True;True;True;0;1;0;False;Calibration;0;GpsAtti;541;21;-181;0;0;1;0;32.1038534264519;34.8132449307978;0;0;;;;;;;;;;;;;;;;;;;;;;;;;;;;;
1.742;;;;;;;;;;;;;;;;;;;;;;;;10/1/2015 9:20:39 AM;0.1430537;1.414214;0;0;1443691239702;;;;0;0;YawFollow;546;0;-31;;;;;;;;;;;;;;;;;;;6;3;00:09:50.5000000;0;210;None;None;False;RcAssistantTakeoff;19;False;False;True;True;True;0;1;0;False;Calibration;0;GpsAtti;538;39;-231;0;1;1;0;32.1038535688765;34.8132451017428;0;0;;;;;;;;;;;;;;;;;;;;;;;;;;;;;
1.968;;;;;;;;;;;;;;;;;;;;;;;;10/1/2015 9:20:39 AM;0.1614738;2.828427;0;0;1443691239928;;;;0;0;YawFollow;544;0;-31;;;;;;;;;;;;;;;;;;;6;3;00:09:50.6000000;0;210;None;None;False;RcAssistantTakeoff;19;False;False;True;True;True;0;1;0;False;Calibration;0;GpsAtti;534;50;-306;0;2;2;0;32.1038536655949;34.8132452604081;0;0;;;;;;;;;;;;;;;;;;;;;;;;;;;;;
2.101;;;;;;;;;;;;;;;;;;;;;;;;10/1/2015 9:20:40 AM;0.1809792;2;0;0;1443691240061;;;;0;0;YawFollow;544;0;-30;;;;;;;;;;;;;;;;;;;6;3;00:09:50.7000000;4;210;None;None;False;RcAssistantTakeoff;19;False;False;False;True;True;0;1;0;False;Calibration;0;AssistedTakeoff;538;29;-367;0;0;2;0;32.1038537742856;34.8132454228891;0;0;;;;;;;;;;;;;;;;;;;;;;;;;;;;"Tips__RC Assisted Takeoff";
2.217;0;0;Normal;32.91;7/1/2015 12:00:00 AM;456;-1557;-2147483648;13;100;4385;1490;15.021;34;;;;;;;;;;10/1/2015 9:20:40 AM;0.2043961;1;0;0;1443691240177;True;FoldComplete;Normal;0;0;YawFollow;548;0;-30;;;;;;;;;;;;;;;;;;;6;3;00:09:50.8000000;4;210;None;None;False;RcAssistantTakeoff;19;False;False;False;True;True;0;1;0;False;Calibration;0;AssistedTakeoff;564;0;-357;-1;0;1;0;32.1038539854259;34.8132454274288;0;0;;;;;;;;;;;;;;;;34;15.002;0;NonGohome;None;4.885649;0;10;16;0;23;0;;
2.277;;;;;;;;;;;;;;;;;;;;;;;;10/1/2015 9:20:40 AM;0.216251;0;0;0;1443691240237;;;;0;0;YawFollow;556;0;-30;;;;;;;;;;;;;;;;;;;6;3;00:09:50.9000000;6;210;None;None;False;RcAssistantTakeoff;18;False;False;False;True;True;0;1;0;False;Calibration;0;AssistedTakeoff;574;10;-316;-1;0;0;0;32.1038540786935;34.8132454888174;0;0;;;;;;;;;;;;;;;;;;;;;;;;;;;;;
2.572;;;;;;;;;;;;;;;;;;;;;;;;10/1/2015 9:20:40 AM;0.2409798;1;0;0;1443691240532;;;;0;0;YawFollow;560;0;-30;;;;;;;;;;;;;;;;;;;6;3;00:09:51;7;210;None;None;False;RcAssistantTakeoff;18;False;False;False;True;True;0;1;0;False;Calibration;0;AssistedTakeoff;575;39;-246;-1;-1;0;0;32.1038539269356;34.8132452968438;0;0;;;;;;;;;;;;;;;;;;;;;;;;;;;;;
2.657;;;;;;;;;;;;;;;;;;;;;;;;10/1/2015 9:20:40 AM;0.3189985;1;0;0;1443691240617;;;;0;0;YawFollow;584;0;-30;;;;;;;;;;;;;;;;;;;6;3;00:09:51.3000000;2;210;None;None;False;RcAssistantTakeoff;18;False;False;False;True;True;0;1;0;False;Calibration;0;AssistedTakeoff;608;32;-16;-2;-1;0;0.1;32.1038535396045;34.813244606789;0;0;;;;;;;;;;;;;;;;;;;;;;;;;;;;;
3.05;;;;;;;;;;;;;;;;;;;;;;;;10/1/2015 9:20:41 AM;0.3398819;1;0;0;1443691241010;;;;0;0;YawFollow;595;0;-30;;;;;;;;;;;;;;;;;;;6;3;00:09:51.6000000;3;210;None;None;False;RcAssistantTakeoff;19;False;False;False;True;True;0;1;0;False;Calibration;0;AssistedTakeoff;607;28;-8;-1;0;1;0.2;32.1038534153161;34.8132444405607;0;0;;;;;;;;;;;;;;;;;;;;;;;;;;;;;
3.085;;;;;;;;;;;;;;;;;;;;;;;;10/1/2015 9:20:41 AM;0.3501737;0;0;0;1443691241045;;;;0;0;YawFollow;596;0;-30;;;;;;;;;;;;;;;;;;;6;3;00:09:51.7000000;2;210;None;None;False;RcAssistantTakeoff;19;False;False;False;True;True;0;1;0;False;Calibration;0;AssistedTakeoff;604;23;-27;-1;0;0;0.2;32.1038534751092;34.8132445239573;0;0;;;;;;;;;;;;;;;;;;;;;;;;;;;;;
3.214;0;0;Normal;32.91;7/1/2015 12:00:00 AM;456;-5660;-2147483648;13;100;4385;1490;14.948;34;;;;;;;;;;10/1/2015 9:20:41 AM;0.3588684;0;0;0;1443691241174;;;;;;;;;;;;;;;;;;;;;;;;;;;;6;3;00:09:51.8000000;2;210;None;None;False;RcAssistantTakeoff;19;False;False;False;True;True;0;1;0;False;Calibration;0;AssistedTakeoff;603;22;-34;0;0;0;0.2;32.1038535525567;34.8132445383364;0;0;;;;;;;;;;;;;;;;34;15.153;0;NonGohome;None;4.885649;0;10;16;0;23;0;;
3.336;;;;;;;;;;;;;;;;;;;;;;;;10/1/2015 9:20:41 AM;0.379117;0;0;0;1443691241296;;;;0;0;YawFollow;597;0;-30;;;;;;;;;;;;;;;;;;;6;3;00:09:52;2;210;None;None;False;RcAssistantTakeoff;19;False;False;True;True;True;0;1;0;False;Calibration;0;AssistedTakeoff;603;23;-30;0;0;0;0.1;32.1038533736866;34.8132444951757;0;0;;;;;;;;;;;;;;;;;;;;;;;;;;;;;
3.439;;;;;;;;;;;;;;;;;;;;;;;;10/1/2015 9:20:41 AM;0.4022965;0;0;0;1443691241399;;;;;;;;;;;;;;;;;;;;;;;;;;;;6;3;00:09:52.1000000;2;210;None;None;False;RcAssistantTakeoff;19;False;False;True;True;True;0;1;0;False;Calibration;0;AssistedTakeoff;603;23;-31;0;0;0;0.1;32.1038535803344;34.8132445321729;0;0;;;;;;;;;;;;;;;;;;;;;;;;;;;;;
3.674;;;;;;;;;;;;;;;;;;;;;;;;10/1/2015 9:20:41 AM;0.4077868;1;0;0;1443691241634;;;;;;;;;;;;;;;;;;;;;;;;;;;;6;3;00:09:52.2000000;2;210;None;None;False;RcAssistantTakeoff;19;False;False;True;True;True;0;1;0;False;Calibration;0;AssistedTakeoff;603;23;-33;0;0;1;0.1;32.1038535327073;34.8132445480686;0;0;;;;;;;;;;;;;;;;;;;;;;;;;;;;;
3.787;;;;;;;;;;;;;;;;;;;;;;;;10/1/2015 9:20:41 AM;0.4229135;0;0;0;1443691241747;;;;;;;;;;;;;;;;;;;;;;;;;;;;6;3;00:09:52.5000000;1;210;None;None;False;RcAssistantTakeoff;19;False;False;False;True;True;0;1;0;False;Calibration;0;AssistedTakeoff;603;23;-34;0;0;0;0.1;32.1038536601369;34.8132444908704;0;0;0;0;False;False;1024;1024;1115;1024;1024;;;;;;;;;;;;;;;;;;;;
3.879;;;;;;;;;;;;;;;;;;;;;;;;10/1/2015 9:20:41 AM;0.4335649;0;0;0;1443691241839;;;;;;;;;;;;;;;;;;;;;;;;;;;;6;3;00:09:52.6000000;1;210;None;None;False;RcAssistantTakeoff;19;False;False;False;True;True;0;1;0;False;Calibration;0;AssistedTakeoff;603;23;-34;0;0;0;0.1;32.1038536006365;34.8132445794617;0;0;0;0;False;False;1024;1024;1250;1024;1024;;;;;;;;;;;;;;;;;;;;
4.015;;;;;;;;;;;;;;;;;;;;;;;;10/1/2015 9:20:41 AM;0.438731;0;0;0;1443691241975;;;;0;0;YawFollow;598;0;-30;;;;;;;;;;;;;;;;;;;6;3;00:09:52.7000000;1;210;None;None;False;RcAssistantTakeoff;19;False;False;False;True;True;0;1;0;False;Calibration;0;AssistedTakeoff;603;23;-34;0;0;0;0.1;32.1038536435902;34.8132445582671;0;0;0;0;False;False;1024;1024;1349;1024;1024;;;;;;;;;;;;;;;;;;;;
4.158;0;0;Normal;32.91;7/1/2015 12:00:00 AM;456;-4355;-2147483648;13;100;4385;1490;14.946;34;;;;;;;;;;10/1/2015 9:20:42 AM;0.4437122;0;0;0;1443691242118;;;;;;;;;;;;;;;;;;;;;;;;;;;;6;3;00:09:52.8000000;1;210;None;None;False;RcAssistantTakeoff;19;False;False;False;True;True;0;1;0;False;Calibration;0;AssistedTakeoff;603;23;-34;0;0;0;0;32.1038536863887;34.81324454224;0;0;0;0;False;False;1024;1024;1445;1024;1024;;;;;;;34;15.148;0;NonGohome;None;4.879552;840.4153;10;18;0;23;215;;
4.356;;;;;;;;;;;;;;;;;;;;;;;;10/1/2015 9:20:42 AM;0.4536329;0;0;0;1443691242316;;;;;;;;;;;;;;;;;;;;;;;;;;;;6;3;00:09:52.9000000;1;210;None;None;False;RcAssistantTakeoff;19;False;False;False;True;True;0;1;0;False;Calibration;0;AssistedTakeoff;603;23;-34;-2;0;0;0;32.1038536064446;34.8132445894234;0;0;0;0;False;False;1024;1024;1513;1024;1024;;;;;;;;;;;;;;;;;;;;
4.48;;;;;;;;;;;;;;;;;;;;;;;;10/1/2015 9:20:42 AM;0.4601122;0;0;0;1443691242440;;;;;;;;;;;;;;;;;;;;;;;;;;;;6;3;00:09:53.1000000;0;210;None;None;False;RcAssistantTakeoff;19;False;False;False;True;True;0;1;0;False;Calibration;0;AssistedTakeoff;607;32;-28;0;0;0;0;32.1038536630104;34.8132445722187;0;0;0;0;False;False;1024;1024;1464;1024;1024;;;;;;;;;;;;;;;;;;;;
4.572;;;;;;;;;;;;;;;;;;;;;;;;10/1/2015 9:20:42 AM;0.4762031;0;0;0;1443691242532;;;;0;0;YawFollow;599;0;-30;;;;;;;;;;;;;;;;;;;6;3;00:09:53.2000000;2;210;None;None;False;RcAssistantTakeoff;19;False;False;False;True;True;0;1;0;False;Calibration;0;AssistedTakeoff;613;49;-16;1;0;0;0;32.1038535260425;34.8132446285173;0;0;0;0;False;False;1024;1024;1141;1024;1024;;;;;;;;;;;;;;;;;;;;
4.616;;;;;;;;;;;;;;;;;;;;;;;;10/1/2015 9:20:42 AM;0.4865049;1;0;0;1443691242576;;;;0;0;YawFollow;600;0;-30;;;;;;;;;;;;;;;;;;;6;3;00:09:53.3000000;2;210;None;None;False;RcAssistantTakeoff;19;False;False;False;True;True;2;1;0;False;Calibration;0;GpsAtti;620;68;-5;1;0;-1;-0.1;32.103853437828;34.8132446627482;0;0;0;0;False;False;1024;1024;1024;1024;1024;;;;;;;;;;;;;;;;;;;;
4.72;;;;;;;;;;;;;;;;;;;;;;;;10/1/2015 9:20:42 AM;0.513411;3.162278;0;0;1443691242680;;;;0;0;YawFollow;602;0;-30;;;;;;;;;;;;;;;;;;;6;3;00:09:53.4000000;3;210;None;None;False;RcAssistantTakeoff;19;False;False;False;True;True;2;1;0;False;Calibration;0;GpsAtti;628;68;6;0;1;-3;-0.2;32.1038532102677;34.8132447616785;0;0;;;;;;;;;;;;;;;;;;;;;;;;;;;;;
4.816;;;;;;;;;;;;;;;;;;;;;;;;10/1/2015 9:20:42 AM;0.5718557;4.123106;0;0;1443691242776;;;;0;0;YawFollow;604;0;-30;;;;;;;;;;;;;;;;;;;6;3;00:09:53.5000000;3;210;None;None;False;RcAssistantTakeoff;19;False;False;False;True;True;2;1;0;False;Calibration;0;GpsAtti;635;13;10;-2;1;-4;-0.2;32.1038527565967;34.8132450768603;0;0;;;;;;;;;;;;;;;;;;;;;;;;;;;;;
4.912;;;;;;;;;;;;;;;;;;;;;;;;10/1/2015 9:20:42 AM;0.6234098;5.385165;0;0;1443691242872;;;;0;0;YawFollow;607;0;-30;;;;;;;;;;;;;;;;;;;6;3;00:09:53.6000000;3;210;None;None;False;RcAssistantTakeoff;19;False;False;False;True;True;2;1;0;False;Calibration;0;GpsAtti;639;-18;-1;-4;2;-5;-0.2;32.1038523225402;34.8132452725456;0;0;;;;;;;;;;;;;;;;;;;;;;;;;;;;;
5.007;;;;;;;;;;;;;;;;;;;;;;;;10/1/2015 9:20:42 AM;0.7082634;5.385165;0;0;1443691242967;;;;0;0;YawFollow;609;0;-30;;;;;;;;;;;;;;;;;;;6;3;00:09:53.7000000;3;210;None;None;False;RcAssistantTakeoff;19;False;False;False;True;True;2;1;0;False;Calibration;0;GpsAtti;641;-32;-9;-4;2;-5;-0.2;32.1038515916749;34.8132455388713;0;0;0;0;False;False;1024;1024;1065;1024;1024;;;;;;;;;;;;;;;;;;;;
5.088;0;0;Normal;32.91;7/1/2015 12:00:00 AM;456;-2450;-2147483648;13;100;4385;1490;14.98;34;;;;;;;;;;10/1/2015 9:20:43 AM;0.7749052;5.385165;0;0;1443691243048;;;;0;0;YawFollow;612;0;-30;;;;;;;;;;;;;;;;;;;6;3;00:09:53.8000000;3;210;None;None;False;RcAssistantTakeoff;19;False;False;False;True;True;2;1;0;False;Calibration;0;GpsAtti;640;-53;-9;-4;2;-5;-0.2;32.1038510424979;34.8132458256391;0;0;0;0;False;False;1024;1024;1061;1024;1024;;;;;;;34;14.602;0;NonGohome;None;4.879552;840.4153;10;18;0;24;215;;
5.223;;;;;;;;;;;;;;;;;;;;;;;;10/1/2015 9:20:43 AM;0.8761222;5.385165;0;0;1443691243183;;;;0;0;YawFollow;613;0;-30;;;;;;;;;;;;;;;;;;;6;3;00:09:53.9000000;3;210;None;None;False;RcAssistantTakeoff;19;False;False;False;True;True;2;1;0;False;Calibration;0;GpsAtti;636;-74;-5;-4;2;-5;-0.1;32.1038501841007;34.8132461902594;0;0;0;0;False;False;1024;1024;1141;1024;1024;;;;;;;;;;;;;;;;;;;;
5.308;;;;;;;;;;;;;;;;;;;;;;;;10/1/2015 9:20:43 AM;0.9319208;4.472136;0;0;1443691243268;;;;0;0;YawFollow;614;0;-30;;;;;;;;;;;;;;;;;;;6;3;00:09:54;4;210;None;None;False;RcAssistantTakeoff;19;False;False;False;True;True;2;1;0;False;Calibration;0;GpsAtti;632;-97;-4;-3;2;-4;-0.1;32.103849720884;34.8132464211829;0;0;0;0;False;False;1024;1024;1325;1024;1024;;;;;;;;;;;;;;;;;;;;
5.415;;;;;;;;;;;;;;;;;;;;;;;;10/1/2015 9:20:43 AM;1.024661;4.472136;0;0;1443691243375;;;;;;;;;;;;;;;;;;;;;;;;;;;;6;3;00:09:54.1000000;5;210;None;None;False;RcAssistantTakeoff;19;False;False;False;True;True;2;1;0;False;Calibration;0;GpsAtti;628;-115;-5;-2;2;-4;-0.1;32.1038489493153;34.8132468003117;0;0;0;0;False;False;1024;1024;1435;1024;1024;;;;;;;;;;;;;;;;;;;;
5.501;;;;;;;;;;;;;;;;;;;;;;;;10/1/2015 9:20:43 AM;1.065453;2.236068;0;0;1443691243461;;;;0;0;YawFollow;615;0;-30;;;;;;;;;;;;;;;;;;;6;3;00:09:54.2000000;5;210;None;None;False;RcAssistantTakeoff;19;False;False;False;True;True;2;1;0;False;Calibration;0;GpsAtti;625;-126;-6;-2;1;-2;-0.1;32.1038486202901;34.8132469936062;0;0;0;0;False;False;1024;1024;1479;1024;1024;;;;;;;;;;;;;;;;;;;;
5.611;;;;;;;;;;;;;;;;;;;;;;;;10/1/2015 9:20:43 AM;1.121442;1.414214;0;0;1443691243571;;;;;;;;;;;;;;;;;;;;;;;;;;;;6;3;00:09:54.3000000;5;210;None;None;False;RcAssistantTakeoff;19;False;False;False;True;True;2;1;0;False;Calibration;0;GpsAtti;624;-129;-7;-5;1;-1;-0.1;32.1038481857633;34.8132472956958;0;0;;;;;;;;;;;;;;;;;;;;;;;;;;;;;
5.751;;;;;;;;;;;;;;;;;;;;;;;;10/1/2015 9:20:43 AM;1.164053;0;0;0;1443691243711;;;;;;;;;;;;;;;;;;;;;;;;;;;;6;3;00:09:54.4000000;2;210;None;None;False;RcAssistantTakeoff;19;False;False;False;True;True;2;1;0;False;Calibration;0;GpsAtti;625;-122;-8;-10;0;0;0;32.1038478629242;34.8132475405589;0;0;0;0;False;False;1024;1024;1381;1024;1024;;;;;;;;;;;;;;;;;;;;
5.866;;;;;;;;;;;;;;;;;;;;;;;;10/1/2015 9:20:43 AM;1.18279;2;0;0;1443691243826;;;;;;;;;;;;;;;;;;;;;;;;;;;;6;3;00:09:54.6000000;4;210;None;None;False;RcAssistantTakeoff;19;False;False;False;True;True;2;1;0;False;Calibration;0;GpsAtti;624;-82;0;-17;0;2;0.2;32.1038480261189;34.8132475920133;0;0;0;0;False;False;1024;1024;1024;1024;1024;;;;;;;;;;;;;;;;;;;;
5.966;;;;;;;;;;;;;;;;;;;;;;;;10/1/2015 9:20:43 AM;1.212276;1;0;0;1443691243926;;;;0;0;YawFollow;616;0;-30;;;;;;;;;;;;;;;;;;;6;3;00:09:54.7000000;5;210;None;None;False;RcAssistantTakeoff;19;False;False;False;True;True;2;1;0;False;Calibration;0;GpsAtti;624;-79;0;-17;0;1;0.4;32.1038479007919;34.8132478675363;0;0;0;0;False;False;1024;1024;1178;1024;1024;;;;;;;;;;;;;;;;;;;;
6.097;;;;;;;;;;;;;;;;;;;;;;;;10/1/2015 9:20:44 AM;1.228549;1;0;0;1443691244057;;;;;;;;;;;;;;;;;;;;;;;;;;;;6;3;00:09:54.8000000;7;210;None;None;False;RcAssistantTakeoff;19;False;False;False;True;True;2;1;0;False;Calibration;0;GpsAtti;625;-77;2;-15;0;1;0.5;32.1038480440009;34.813247829876;0;0;0;0;False;False;1024;1023;1278;1024;1024;;;;;;;34;14.347;0;NonGohome;None;4.879552;840.4153;10;18;0;23;215;;
6.247;;;;;;;;;;;;;;;;;;;;;;;;10/1/2015 9:20:44 AM;1.234761;0;0;0;1443691244207;;;;;;;;;;;;;;;;;;;;;;;;;;;;6;3;00:09:54.9000000;8;210;None;None;False;RcAssistantTakeoff;19;False;False;False;True;True;2;1;0;False;Calibration;0;GpsAtti;626;-80;0;-12;0;0;0.7;32.1038480654981;34.8132477691048;0;0;0;0;False;False;1024;1024;1458;1024;1024;;;;;;;;;;;;;;;;;;;;
6.32;;;;;;;;;;;;;;;;;;;;;;;;10/1/2015 9:20:44 AM;1.28204;0;0;0;1443691244280;;;;;;;;;;;;;;;;;;;;;;;;;;;;6;3;00:09:55;9;210;None;None;False;RcAssistantTakeoff;19;False;False;False;True;True;2;1;0;False;Calibration;0;GpsAtti;625;-93;0;-8;0;0;0.8;32.1038476640606;34.8132479378761;0;0;0;0;False;False;1024;1024;1470;1024;1024;;;;;;;;;;;;;;;;;;;;
6.417;;;;;;;;;;;;;;;;;;;;;;;;10/1/2015 9:20:44 AM;1.290381;0;0;0;1443691244377;;;;;;;;;;;;;;;;;;;;;;;;;;;;6;3;00:09:55.1000000;10;210;None;None;False;RcAssistantTakeoff;19;False;False;False;True;True;2;1;0;False;Calibration;0;GpsAtti;625;-97;0;-8;0;0;0.8;32.1038476847117;34.8132480228437;0;0;0;0;False;False;1024;1024;1125;1024;1024;;;;;;;;;;;;;;;;;;;;
6.5;;;;;;;;;;;;;;;;;;;;;;;;10/1/2015 9:20:44 AM;1.299915;1;0;0;1443691244460;;;;0;0;YawFollow;617;0;-30;;;;;;;;;;;;;;;;;;;6;3;00:09:55.2000000;2;210;None;None;False;RcAssistantTakeoff;19;False;False;False;True;True;2;1;0;False;Calibration;0;GpsAtti;626;-93;-2;-11;0;1;0.9;32.1038477649967;34.8132479867009;0;0;0;0;False;False;1024;1024;1073;1024;1024;;;;;;;;;;;;;;;;;;;;
6.585;;;;;;;;;;;;;;;;;;;;;;;;10/1/2015 9:20:44 AM;1.31398;2;0;0;1443691244545;;;;;;;;;;;;;;;;;;;;;;;;;;;;6;3;00:09:55.3000000;3;210;None;None;False;RcAssistantTakeoff;19;False;False;False;True;True;2;1;0;False;Calibration;0;GpsAtti;627;-89;0;-15;0;2;1;32.1038476948487;34.8132481108606;0;0;0;0;False;False;1024;1024;1024;1024;1024;;;;;;;;;;;;;;;;;;;;
6.696;;;;;;;;;;;;;;;;;;;;;;;;10/1/2015 9:20:44 AM;1.338332;2;0;0;1443691244656;;;;;;;;;;;;;;;;;;;;;;;;;;;;6;3;00:09:55.4000000;4;210;None;None;False;RcAssistantTakeoff;19;False;False;False;True;True;2;1;0;False;Calibration;0;GpsAtti;625;-87;7;-15;0;2;1.2;32.1038479071748;34.8132480449652;0;0;;;;;;;;;;;;;;;;;;;;;;;;;;;;;
6.786;;;;;;;;;;;;;;;;;;;;;;;;10/1/2015 9:20:44 AM;1.387665;2;0;0;1443691244746;;;;;;;;;;;;;;;;;;;;;;;;;;;;6;3;00:09:55.5000000;6;210;None;None;False;RcAssistantTakeoff;19;False;False;False;True;True;2;1;0;False;Calibration;0;GpsAtti;622;-85;15;-12;0;2;1.3;32.1038483517004;34.8132480659248;0;0;;;;;;;;;;;;;;;;;;;;;;;;;;;;;
6.894;;;;;;;;;;;;;;;;;;;;;;;;10/1/2015 9:20:44 AM;1.409442;1;0;0;1443691244854;;;;;;;;;;;;;;;;;;;;;;;;;;;;6;3;00:09:55.6000000;4;210;None;None;False;RcAssistantTakeoff;19;False;False;False;True;True;2;1;0;False;Calibration;0;GpsAtti;620;-53;11;-8;0;1;1.4;32.1038485480715;34.8132480630863;0;0;;;;;;;;;;;;;;;;;;;;;;;;;;;;;
6.992;;;;;;;;;;;;;;;;;;;;;;;;10/1/2015 9:20:44 AM;1.416046;0;0;0;1443691244952;;;;;;;;;;;;;;;;;;;;;;;;;;;;6;3;00:09:55.7000000;4;210;None;None;False;RcAssistantTakeoff;19;False;False;False;True;True;2;1;0;False;Calibration;0;GpsAtti;616;-23;3;-5;0;0;1.5;32.1038485209125;34.8132481253568;0;0;0;0;False;False;1024;1024;1155;1024;1024;;;;;;;;;;;;;;;;;;;;
7.086;0;0;Normal;32.91;7/1/2015 12:00:00 AM;456;-13952;-2147483648;13;100;4385;1490;14.625;34;;;;;;;;;;10/1/2015 9:20:45 AM;1.419221;0;0;0;1443691245046;True;Stretching;Normal;;;;;;;;;;;;;;;;;;;;;;;;;6;3;00:09:55.8000000;3;210;None;None;False;RcAssistantTakeoff;19;False;False;False;True;True;2;1;0;False;Calibration;0;GpsAtti;612;-13;0;-3;0;0;1.5;32.1038485453933;34.8132481427985;0;0;0;0;False;False;1024;1024;1386;1024;1024;;;;;;;34;14.674;0;NonGohome;None;4.872032;840.4153;10;18;0;22;215;;
7.196;;;;;;;;;;;;;;;;;;;;;;;;10/1/2015 9:20:45 AM;1.437433;0;0;0;1443691245156;;;;;;;;;;;;;;;;;;;;;;;;;;;;6;3;00:09:55.9000000;3;210;None;None;False;RcAssistantTakeoff;18;False;False;False;True;True;2;1;0;False;Calibration;0;GpsAtti;611;-13;-1;-1;0;0;1.4;32.103848392188;34.8132482123142;0;0;0;0;False;False;1024;1024;1365;1024;1024;;;;;;;;;;;;;;;;;;;;
7.302;;;;;;;;;;;;;;;;;;;;;;;;10/1/2015 9:20:45 AM;1.483976;1;0;0;1443691245262;;;;;;;;;;;;;;;;;;;;;;;;;;;;6;3;00:09:56;2;210;None;None;False;RcAssistantTakeoff;18;False;False;False;True;True;2;1;0;False;Calibration;0;GpsAtti;611;-19;-6;0;0;-1;1.4;32.1038479769729;34.8132482844276;0;0;0;0;False;False;1024;1024;1024;1024;1024;;;;;;;;;;;;;;;;;;;;
7.421;;;;;;;;;;;;;;;;;;;;;;;;10/1/2015 9:20:45 AM;1.507019;2.236068;0;0;1443691245381;;;;;;;;;;;;;;;;;;;;;;;;;;;;6;3;00:09:56.1000000;2;210;None;None;False;RcAssistantTakeoff;18;False;False;False;True;True;2;1;0;False;Calibration;0;GpsAtti;613;-27;-5;-2;1;-2;1.4;32.103847818532;34.8132484423903;0;0;;;;;;;;;;;;;;;;;;;;;;;;;;;;;
7.49;;;;;;;;;;;;;;;;;;;;;;;;10/1/2015 9:20:45 AM;1.528491;2.236068;0;0;1443691245450;;;;;;;;;;;;;;;;;;;;;;;;;;;;6;3;00:09:56.2000000;2;210;None;None;False;RcAssistantTakeoff;18;False;False;False;True;True;2;1;0;False;Calibration;0;GpsAtti;615;-36;-2;-6;1;-2;1.4;32.1038476396082;34.8132485293882;0;0;;;;;;;;;;;;;;;;;;;;;;;;;;;;;
7.553;;;;;;;;;;;;;;;;;;;;;;;;10/1/2015 9:20:45 AM;1.576568;2.236068;0;0;1443691245513;;;;;;;;;;;;;;;;;;;;;;;;;;;;6;3;00:09:56.3000000;3;210;None;None;False;RcAssistantTakeoff;18;False;False;False;True;True;2;1;0;False;Calibration;0;GpsAtti;614;-57;-2;-6;1;-2;1.5;32.1038473285439;34.8132488842009;0;0;;;;;;;;;;;;;;;;;;;;;;;;;;;;;
7.677;;;;;;;;;;;;;;;;;;;;;;;;10/1/2015 9:20:45 AM;1.607237;2.236068;0;0;1443691245637;;;;;;;;;;;;;;;;;;;;;;;;;;;;6;3;00:09:56.4000000;3;210;None;None;False;RcAssistantTakeoff;18;False;False;True;True;True;2;1;0;False;Calibration;0;GpsAtti;613;-77;-3;-3;1;-2;1.5;32.1038470787062;34.8132490235972;0;0;;;;;;;;;;;;;;;;;;;;;;;;;;;;;
7.896;;;;;;;;;;;;;;;;;;;;;;;;10/1/2015 9:20:45 AM;1.658422;2;0;0;1443691245856;;;;;;;;;;;;;;;;;;;;;;;;;;;;6;3;00:09:56.5000000;2;210;None;None;False;RcAssistantTakeoff;18;False;False;True;True;True;2;1;0;False;Calibration;0;GpsAtti;612;-89;-5;-2;0;-2;1.6;32.1038466525266;34.8132492318857;0;0;;;;;;;;;;;;;;;;;;;;;;;;;;;;;
8.029;;;;;;;;;;;;;;;;;;;;;;;;10/1/2015 9:20:45 AM;1.687104;2;0;0;1443691245989;;;;;;;;;;;;;;;;;;;;;;;;;;;;6;3;00:09:56.6000000;2;210;None;None;False;RcAssistantTakeoff;18;False;False;True;True;True;2;1;0;False;Calibration;0;GpsAtti;615;-99;-7;-1;0;-2;1.6;32.1038464052484;34.8132493210312;0;0;0;0;False;False;1024;1024;1024;1024;1033;;;;;;;;;;;;;;;;;;;;
8.122;;;;;;;;;;;;;;;;;;;;;;;;10/1/2015 9:20:46 AM;1.739157;2;0;0;1443691246082;;;;;;;;;;;;;;;;;;;;;;;;;;;;6;3;00:09:56.7000000;2;210;None;None;False;RcAssistantTakeoff;19;False;False;True;True;True;2;1;0;False;Calibration;0;GpsAtti;620;-65;-7;-1;0;-2;1.6;32.1038459703842;34.813249528683;0;0;0;0;False;False;1024;1024;1024;1024;1025;;;;;;;;;;;;;;;;;;;;
8.395;;;;;;;;;;;;;;;;;;;;;;;;10/1/2015 9:20:46 AM;1.847208;3.162278;0;0;1443691246355;;;;;;;;;;;;;;;;;;;;;;;;;;;;6;3;00:09:56.9000000;2;210;None;None;False;RcAssistantTakeoff;19;False;False;True;True;True;2;1;0;False;Calibration;0;GpsAtti;624;-16;-8;-1;1;-3;1.7;32.1038450676449;34.8132499596152;0;0;0;0;False;False;1024;1024;1024;1024;1024;;;;;;;;;;;;;;;;;;;;
8.664;;;;;;;;;;;;;;;;;;;;;;;;10/1/2015 9:20:46 AM;2.093376;4.24264;0;0;1443691246624;True;Folding;Protect;0;0;YawFollow;618;0;-30;;;;;;;;;;;;;;;;;;;6;3;00:09:57.3000000;2;210;None;None;False;RcAssistantTakeoff;19;False;False;True;True;True;2;1;0;False;Calibration;0;GpsAtti;625;-52;-25;-1;3;-3;1.7;32.1038432201247;34.8132514056106;0;0;0;0;False;False;1024;1024;1024;1481;1024;;;;;;;;;;;;;;;;;;;;
8.736;;;;;;;;;;;;;;;;;;;;;;;;10/1/2015 9:20:46 AM;2.142676;5;0;0;1443691246696;;;;;;;;;;;;;;;;;;;;;;;;;;;;6;3;00:09:57.4000000;1;210;None;None;False;RcAssistantTakeoff;19;False;False;True;True;True;2;1;0;False;Calibration;0;GpsAtti;623;-34;-93;0;4;-3;1.7;32.1038429194197;34.8132517903355;0;0;0;0;False;False;1024;1024;1024;1396;1024;;;;;;;;;;;;;;;;;;;;
8.837;;;;;;;;;;;;;;;;;;;;;;;;10/1/2015 9:20:46 AM;2.242018;6.324555;0;0;1443691246797;;;;;;;;;;;;;;;;;;;;;;;;;;;;6;3;00:09:57.5000000;2;210;None;None;False;RcAssistantTakeoff;19;False;False;True;True;True;2;1;0;False;Calibration;0;GpsAtti;620;-26;-144;0;6;-2;1.6;32.1038422722081;34.8132525180671;0;0;0;0;False;False;1024;1024;1024;1024;1024;;;;;;;;;;;;;;;;;;;;
8.915;;;;;;;;;;;;;;;;;;;;;;;;10/1/2015 9:20:46 AM;2.323669;9.055386;0;0;1443691246875;;;;;;;;;;;;;;;;;;;;;;;;;;;;6;3;00:09:57.6000000;2;210;None;None;False;RcAssistantTakeoff;19;False;False;True;True;True;2;1;0;False;Calibration;0;GpsAtti;617;-18;-164;0;9;-1;1.6;32.1038420688918;34.8132533495103;0;0;;;;;;;;;;;;;;;;;;;;;;;;;;;;;
9.01;;;;;;;;;;;;;;;;;;;;;;;;10/1/2015 9:20:46 AM;2.449622;11.04536;0;0;1443691246970;;;;;;;;;;;;;;;;;;;;;;;;;;;;6;3;00:09:57.7000000;2;210;None;None;False;RcAssistantTakeoff;19;False;False;True;True;True;2;1;0;False;Calibration;0;Atti;616;-21;-139;0;11;-1;1.6;32.1038418265215;34.8132546532068;0;0;;;;;;;;;;;;;;;;;;;;;;;;;;;;;
9.13;0;0;Normal;32.91;7/1/2015 12:00:00 AM;456;-16017;-2147483648;13;100;4385;1490;14.554;34;;;;;;;;;;10/1/2015 9:20:47 AM;2.581765;13.0384;0;0;1443691247090;True;FoldComplete;Normal;;;;;;;;;;;;;;;;;;;;;;;;;6;3;00:09:57.8000000;2;210;None;None;False;RcAssistantTakeoff;19;False;False;True;True;True;2;1;0;False;Calibration;0;GpsAtti;611;-19;-27;0;13;-1;1.6;32.1038414777153;34.8132559919099;0;0;;;;;;;;;;;;;;;;34;14.505;0;NonGohome;None;4.86315;840.4153;10;18;0;22;215;;
9.305;;;;;;;;;;;;;;;;;;;;;;;;10/1/2015 9:20:47 AM;2.735251;13.15295;0;0;1443691247265;;;;;;;;;;;;;;;;;;;;;;;;;;;;6;3;00:09:57.9000000;2;210;None;None;False;RcAssistantTakeoff;19;False;False;False;True;True;2;1;0;False;Calibration;0;GpsAtti;611;-15;25;0;13;-2;1.6;32.1038411967311;34.813257584201;0;0;;;;;;;;;;;;;;;;;;;;;;;;;;;;;
9.601;;;;;;;;;;;;;;;;;;;;;;;;10/1/2015 9:20:47 AM;3.176331;11.40175;0;0;1443691247561;;;;;;;;;;;;;;;;;;;;;;;;;;;;6;3;00:09:58.2000000;2;210;None;None;False;RcAssistantTakeoff;19;False;False;False;True;True;2;1;0;False;Calibration;0;GpsAtti;615;-59;62;0;11;-3;1.6;32.1038400677562;34.8132620651346;0;0;;;;;;;;;;;;;;;;;;;;;;;;;;;;;
9.781;;;;;;;;;;;;;;;;;;;;;;;;10/1/2015 9:20:47 AM;3.610034;11.7047;0;0;1443691247741;;;;;;;;;;;;;;;;;;;;;;;;;;;;6;3;00:09:58.5000000;2;210;None;None;False;RcAssistantTakeoff;18;False;False;False;True;True;2;1;0;False;Calibration;0;GpsAtti;622;-35;14;0;11;-4;1.6;32.1038384141378;34.8132662292145;0;0;0;0;False;False;1024;1024;998;1024;1024;;;;;;;;;;;;;;;;;;;;
9.898;;;;;;;;;;;;;;;;;;;;;;;;10/1/2015 9:20:47 AM;3.729799;11.7047;0;0;1443691247858;;;;;;;;;;;;;;;;;;;;;;;;;;;;6;3;00:09:58.6000000;2;210;None;None;False;RcAssistantTakeoff;18;False;False;False;True;True;2;1;0;False;Calibration;0;GpsAtti;620;-37;16;0;11;-4;1.7;32.1038379958779;34.8132673990862;0;0;0;0;False;False;1024;1024;650;1024;1024;;;;;;;;;;;;;;;;;;;;
9.975;;;;;;;;;;;;;;;;;;;;;;;;10/1/2015 9:20:47 AM;3.883423;12.08305;0;0;1443691247935;;;;;;;;;;;;;;;;;;;;;;;;;;;;6;3;00:09:58.7000000;2;210;None;None;False;RcAssistantTakeoff;18;False;False;False;True;True;2;1;0;False;Calibration;0;GpsAtti;618;-48;20;0;11;-5;1.7;32.1038373394187;34.8132688323672;0;0;0;0;False;False;1024;1024;464;1024;1024;;;;;;;;;;;;;;;;;;;;
10.077;0;0;Normal;32.91;7/1/2015 12:00:00 AM;456;-18552;-2147483648;13;100;4385;1490;14.464;34;;;;;;;;;;10/1/2015 9:20:48 AM;4.040261;12.08305;0;0;1443691248037;;;;;;;;;;;;;;;;;;;;;;;;;;;;6;3;00:09:58.8000000;2;210;None;None;False;RcAssistantTakeoff;18;False;False;False;True;True;2;1;0;False;Calibration;0;GpsAtti;615;-59;26;0;11;-5;1.6;32.1038367135339;34.8132703224692;0;0;0;0;False;False;1024;1024;487;1024;1024;;;;;;;34;14.535;0;NonGohome;None;4.854383;840.4153;10;18;0;22;215;;
10.17;;;;;;;;;;;;;;;;;;;;;;;;10/1/2015 9:20:48 AM;4.205574;12.52996;0;0;1443691248130;;;;;;;;;;;;;;;;;;;;;;;;;;;;6;3;00:09:58.9000000;2;210;None;None;False;RcAssistantTakeoff;18;False;False;False;True;True;2;1;0;False;Calibration;0;GpsAtti;615;-79;35;2;11;-6;1.6;32.1038359568526;34.8132718315355;0;0;0;0;False;False;1024;1024;760;1024;1024;;;;;;;;;;;;;;;;;;;;
10.281;;;;;;;;;;;;;;;;;;;;;;;;10/1/2015 9:20:48 AM;4.336004;12.52996;0;0;1443691248241;;;;;;;;;;;;;;;;;;;;;;;;;;;;6;3;00:09:59;2;210;None;None;False;RcAssistantTakeoff;18;False;False;False;True;True;2;1;0;False;Calibration;0;GpsAtti;615;-105;49;6;11;-6;1.6;32.1038353989034;34.8132730480507;0;0;0;0;False;False;1024;1024;769;1024;1024;;;;;;;;;;;;;;;;;;;;
10.358;;;;;;;;;;;;;;;;;;;;;;;;10/1/2015 9:20:48 AM;4.525073;11.6619;0;0;1443691248318;;;;;;;;;;;;;;;;;;;;;;;;;;;;6;3;00:09:59.1000000;2;210;None;None;False;RcAssistantTakeoff;19;False;False;False;True;True;2;1;0;False;Calibration;0;GpsAtti;615;-127;61;9;10;-6;1.5;32.1038344877543;34.81327474118;0;0;0;0;False;False;1024;1024;973;1024;1024;;;;;;;;;;;;;;;;;;;;
10.47;;;;;;;;;;;;;;;;;;;;;;;;10/1/2015 9:20:48 AM;4.639327;9.433981;0;0;1443691248430;;;;;;;;;;;;;;;;;;;;;;;;;;;;6;3;00:09:59.2000000;1;210;None;None;False;RcAssistantTakeoff;19;False;False;False;True;True;2;1;0;False;Calibration;0;GpsAtti;619;-139;66;8;8;-5;1.4;32.1038339519814;34.8132757751481;0;0;0;0;False;False;1024;1024;1024;1024;1024;;;;;;;;;;;;;;;;;;;;
10.601;;;;;;;;;;;;;;;;;;;;;;;;10/1/2015 9:20:48 AM;4.760625;8.062258;0;0;1443691248561;;;;;;;;;;;;;;;;;;;;;;;;;;;;6;3;00:09:59.3000000;0;210;None;None;False;RcAssistantTakeoff;19;False;False;False;True;True;2;1;0;False;Calibration;0;GpsAtti;622;-139;71;6;7;-4;1.3;32.1038333579375;34.8132768542552;0;0;;;;;;;;;;;;;;;;;;;;;;;;;;;;;
10.697;;;;;;;;;;;;;;;;;;;;;;;;10/1/2015 9:20:48 AM;4.869398;5.385165;0;0;1443691248657;;;;;;;;;;;;;;;;;;;;;;;;;;;;6;3;00:09:59.4000000;0;210;None;None;False;RcAssistantTakeoff;19;False;False;False;True;True;2;1;0;False;Calibration;0;GpsAtti;623;-116;65;3;5;-2;1.3;32.1038328381897;34.8132778316041;0;0;0;0;False;False;1024;1024;1008;1024;1024;;;;;;;;;;;;;;;;;;;;
10.78;;;;;;;;;;;;;;;;;;;;;;;;10/1/2015 9:20:48 AM;4.933904;4.472136;0;0;1443691248740;;;;;;;;;;;;;;;;;;;;;;;;;;;;6;3;00:09:59.5000000;2;210;None;None;False;RcAssistantTakeoff;19;False;False;False;True;True;2;1;0;False;Calibration;0;GpsAtti;624;-94;52;4;4;-2;1.2;32.1038325169292;34.8132784013527;0;0;0;0;False;False;1024;1024;1006;1024;1024;;;;;;;;;;;;;;;;;;;;
10.897;;;;;;;;;;;;;;;;;;;;;;;;10/1/2015 9:20:48 AM;4.979119;3.605551;0;0;1443691248857;;;;;;;;;;;;;;;;;;;;;;;;;;;;6;3;00:09:59.6000000;2;210;None;None;False;RcAssistantTakeoff;19;False;False;False;True;True;2;1;0;False;Calibration;0;GpsAtti;622;-83;42;3;3;-2;1.2;32.1038323140262;34.8132788168694;0;0;0;0;False;False;1024;1024;1018;1024;1024;;;;;;;;;;;;;;;;;;;;
11.005;;;;;;;;;;;;;;;;;;;;;;;;10/1/2015 9:20:48 AM;5.070553;3.605551;0;0;1443691248965;;;;;;;;;;;;;;;;;;;;;;;;;;;;6;3;00:09:59.7000000;2;210;None;None;False;RcAssistantTakeoff;18;False;False;False;True;True;2;1;0;False;Calibration;0;GpsAtti;618;-80;32;1;3;-2;1.1;32.103831935682;34.8132796775886;0;0;0;0;False;False;1024;1024;1024;1024;1024;;;;;;;;;;;;;;;;;;;;
11.103;0;0;Normal;32.91;7/1/2015 12:00:00 AM;456;-16364;-2147483648;13;100;4385;1490;14.47;34;;;;;;;;;;10/1/2015 9:20:49 AM;5.1099;3.162278;0;0;1443691249063;;;;;;;;;;;;;;;;;;;;;;;;;;;;6;3;00:09:59.8000000;2;210;None;None;False;RcAssistantTakeoff;18;False;False;False;True;True;2;1;0;False;Calibration;0;GpsAtti;615;-69;25;1;3;-1;1.1;32.103831750245;34.8132800330134;0;0;;;;;;;;;;;;;;;;34;14.359;0;NonGohome;None;4.845918;840.4153;10;18;0;23;215;;
11.183;;;;;;;;;;;;;;;;;;;;;;;;10/1/2015 9:20:49 AM;5.157237;3.605551;0;0;1443691249143;;;;;;;;;;;;;;;;;;;;;;;;;;;;6;3;00:09:59.9000000;2;210;None;None;False;RcAssistantTakeoff;18;False;False;False;True;True;2;1;0;False;Calibration;0;GpsAtti;612;-67;27;0;3;-2;1.1;32.1038315566212;34.813280479968;0;0;0;0;False;False;1024;1024;1176;1024;1024;;;;;;;;;;;;;;;;;;;;
11.338;;;;;;;;;;;;;;;;;;;;;;;;10/1/2015 9:20:49 AM;5.251457;2.828427;0;0;1443691249298;;;;;;;;;;;;;;;;;;;;;;;;;;;;6;3;00:10:00;2;210;None;None;False;RcAssistantTakeoff;18;False;False;False;True;True;2;1;0;False;Calibration;0;GpsAtti;612;-62;26;0;2;-2;1.1;32.1038310770317;34.8132813039964;0;0;0;0;False;False;1024;1024;1317;1024;1024;;;;;;;;;;;;;;;;;;;;
11.432;;;;;;;;;;;;;;;;;;;;;;;;10/1/2015 9:20:49 AM;5.312309;2.828427;0;0;1443691249392;;;;;;;;;;;;;;;;;;;;;;;;;;;;6;3;00:10:00.1000000;2;210;None;None;False;RcAssistantTakeoff;18;False;False;False;True;True;2;1;0;False;Calibration;0;GpsAtti;613;-60;30;0;2;-2;1.1;32.1038306038175;34.8132816304492;0;0;0;0;False;False;1024;1024;1343;1024;1024;;;;;;;;;;;;;;;;;;;;
11.565;;;;;;;;;;;;;;;;;;;;;;;;10/1/2015 9:20:49 AM;5.349777;2.828427;0;0;1443691249525;;;;;;;;;;;;;;;;;;;;;;;;;;;;6;3;00:10:00.2000000;2;210;None;None;False;RcAssistantTakeoff;18;False;False;False;True;True;2;1;0;False;Calibration;0;GpsAtti;617;-59;23;0;2;-2;1.1;32.1038303595793;34.8132819047585;0;0;0;0;False;False;1024;1024;1327;1024;1024;;;;;;;;;;;;;;;;;;;;
11.615;;;;;;;;;;;;;;;;;;;;;;;;10/1/2015 9:20:49 AM;5.440694;2.828427;0;0;1443691249575;;;;;;;;;;;;;;;;;;;;;;;;;;;;6;3;00:10:00.3000000;2;210;None;None;False;RcAssistantTakeoff;18;False;False;False;True;True;2;1;0;False;Calibration;0;GpsAtti;620;-53;21;-4;2;-2;1.1;32.1038297500178;34.8132825489459;0;0;0;0;False;False;1024;1024;1258;1024;1024;;;;;;;;;;;;;;;;;;;;
11.761;;;;;;;;;;;;;;;;;;;;;;;;10/1/2015 9:20:49 AM;5.542022;3.605551;0;0;1443691249721;;;;;;;;;;;;;;;;;;;;;;;;;;;;6;3;00:10:00.5000000;3;210;None;None;False;RcAssistantTakeoff;18;False;False;False;True;True;2;1;0;False;Calibration;0;GpsAtti;630;-68;19;-9;2;-3;1.2;32.103828976916;34.8132831212615;0;0;0;0;False;False;1024;1024;1032;1024;1024;;;;;;;;;;;;;;;;;;;;
11.873;;;;;;;;;;;;;;;"	";"04DJA26046";"";7/29/2015 10:50:00 AM;"Phantom 3";"03Z0172712";"2.2.0";1;4;10/1/2015 9:20:49 AM;5.608975;2.236068;0;0;1443691249833;;;;0;0;YawFollow;619;0;-30;;;;;;;;;;;;;;;;;;;6;3;00:10:00.6000000;3;210;None;None;False;RcAssistantTakeoff;18;False;False;True;True;True;2;1;0;False;Calibration;0;GpsAtti;633;-71;10;-9;1;-2;1.3;32.1038284988072;34.81328355448;0;0;0;0;False;False;1024;1024;1380;1024;1024;;;;;;;;;;;;;;;;;;;;
12.053;;;;;;;;;;;;;;;;;;;;;;;;10/1/2015 9:20:50 AM;5.676026;3.605551;0;0;1443691250013;;;;0;0;YawFollow;620;0;-30;;;;;;;;;;;;;;;;;;;6;3;00:10:00.7000000;3;210;None;None;False;RcAssistantTakeoff;18;False;False;True;True;True;2;1;0;False;Calibration;0;GpsAtti;636;-71;0;-7;2;-3;1.4;32.1038279842423;34.813283927556;0;0;0;0;False;False;1024;1024;1386;1024;1024;;;;;;;;;;;;;;;;;;;;
12.243;0;0;Normal;32.91;7/1/2015 12:00:00 AM;456;-14411;-2147483648;13;100;4385;1490;14.592;34;;;;;;;;;;10/1/2015 9:20:50 AM;5.715126;2.828427;0;0;1443691250203;True;FoldComplete;Protect;;;;;;;;;;;;;;;;;;;;;;;;;6;3;00:10:00.8000000;3;210;None;None;False;RcAssistantTakeoff;18;False;False;True;True;True;2;1;0;False;Calibration;0;GpsAtti;635;-84;0;-4;2;-2;1.5;32.1038277248814;34.8132842081914;0;0;0;0;False;False;1024;1024;1024;1024;1024;;;;;;;34;14.356;0;NonGohome;None;4.835443;840.4153;10;18;0;22;215;;
12.325;;;;;;;;;;;;;;;;;;;;;;;;10/1/2015 9:20:50 AM;5.85084;2.236068;0;0;1443691250285;;;;0;0;YawFollow;621;0;-30;;;;;;;;;;;;;;;;;;;6;3;00:10:01;3;210;None;None;False;RcAssistantTakeoff;18;False;False;True;True;True;2;1;0;False;Calibration;0;GpsAtti;625;-77;8;-8;2;-1;1.6;32.1038268154039;34.813285170356;0;0;;;;;;;;;;;;;;;;;;;;;;;;;;;;;
12.391;;;;;;;;;;;;;;;;;;;;;;;;10/1/2015 9:20:50 AM;5.923657;3.162278;0;0;1443691250351;;;;0;0;YawFollow;620;0;-30;;;;;;;;;;;;;;;;;;;6;3;00:10:01.1000000;3;210;None;None;False;RcAssistantTakeoff;19;False;False;True;True;True;2;1;0;False;Calibration;0;GpsAtti;620;-64;17;-9;3;-1;1.7;32.1038262860252;34.8132856268563;0;0;0;0;False;False;1024;1024;1244;1024;1024;;;;;;;;;;;;;;;;;;;;
12.482;;;;;;;;;;;;;;;;;;;;;;;;10/1/2015 9:20:50 AM;5.993228;3.162278;0;0;1443691250442;;;;;;;;;;;;;;;;;;;;;;;;;;;;6;3;00:10:01.2000000;3;210;None;None;False;RcAssistantTakeoff;19;False;False;True;True;True;2;1;0;False;Calibration;0;GpsAtti;617;-66;26;-6;3;-1;1.7;32.1038258928988;34.8132862012886;0;0;0;0;False;False;1024;1024;1445;1024;1024;;;;;;;;;;;;;;;;;;;;
12.562;;;;;;;;;;;;;;;;;;;;;;;;10/1/2015 9:20:50 AM;6.057617;3.605551;0;0;1443691250522;True;FoldComplete;Normal;;;;;;;;;;;;;;;;;;;;;;;;;6;3;00:10:01.3000000;2;210;None;None;False;RcAssistantTakeoff;19;False;False;True;True;True;2;1;0;False;Calibration;0;GpsAtti;612;-73;38;-4;3;-2;1.8;32.1038255611022;34.8132867611286;0;0;0;0;False;False;1024;1024;1024;1024;1024;;;;;;;;;;;;;;;;;;;;
12.656;;;;;;;;;;;;;;;;;;;;;;;;10/1/2015 9:20:50 AM;6.098348;3.605551;0;0;1443691250616;;;;;;;;;;;;;;;;;;;;;;;;;;;;6;3;00:10:01.4000000;2;210;None;None;False;RcAssistantTakeoff;19;False;False;False;True;True;2;1;0;False;Calibration;0;GpsAtti;611;-76;44;-3;3;-2;1.8;32.103825350816;34.8132871149449;0;0;0;0;False;False;1024;1024;1023;1024;1024;;;;;;;;;;;;;;;;;;;;
12.841;;;;;;;;;;;;;;;;;;;;;;;;10/1/2015 9:20:50 AM;6.220863;2.828427;0;0;1443691250801;;;;;;;;;;;;;;;;;;;;;;;;;;;;6;3;00:10:01.5000000;5;210;None;None;False;RcAssistantTakeoff;19;False;False;False;True;True;2;1;0;False;Calibration;0;GpsAtti;619;-75;44;-6;2;-2;1.8;32.1038244478052;34.8132878628491;0;0;0;0;False;False;1024;1024;1041;1024;1024;;;;;;;;;;;;;;;;;;;;
13.014;;;;;;;;;;;;;;;;;;;;;;;;10/1/2015 9:20:50 AM;6.255971;2.828427;0;0;1443691250974;;;;0;0;YawFollow;621;0;-30;;;;;;;;;;;;;;;;;;;6;3;00:10:01.6000000;8;210;None;None;False;RcAssistantTakeoff;19;False;False;False;True;True;2;1;0;False;Calibration;0;GpsAtti;632;-92;43;-9;2;-2;1.9;32.1038242109052;34.8132881096208;0;0;0;0;False;False;1024;1024;1024;1024;858;;;;;;;;;;;;;;;;;;;;
13.106;0;0;Normal;32.81;7/1/2015 12:00:00 AM;456;-20272;-2147483648;13;100;4385;1490;14.377;34;;;;;;;;;;10/1/2015 9:20:51 AM;6.341838;2.828427;0;0;1443691251066;;;;0;0;YawFollow;623;0;-30;;;;;;;;;;;;;;;;;;;6;3;00:10:01.8000000;10;210;None;None;False;RcAssistantTakeoff;19;False;False;False;True;True;2;1;0;False;Calibration;0;GpsAtti;645;-109;20;-5;2;-2;2.1;32.103823644739;34.8132887302506;0;0;0;0;False;False;1024;1024;1024;1024;608;;;;;;;34;14.418;0;NonGohome;None;4.82444;840.4153;10;18;0;22;215;;
13.223;;;;;;;;;;;;;;;;;;;;;;;;10/1/2015 9:20:51 AM;6.435471;2.828427;0;0;1443691251183;;;;0;0;YawFollow;624;0;-30;;;;;;;;;;;;;;;;;;;6;3;00:10:01.9000000;12;210;None;None;False;RcAssistantTakeoff;19;False;False;False;True;True;2;1;0;False;Calibration;0;GpsAtti;642;-114;18;-3;2;-2;2.1;32.1038229785809;34.8132893398374;0;0;0;0;False;False;1024;1024;1024;1024;855;;;;;;;;;;;;;;;;;;;;
13.285;;;;;;;;;;;;;;;;;;;;;;;;10/1/2015 9:20:51 AM;6.467443;2.236068;0;0;1443691251245;;;;;;;;;;;;;;;;;;;;;;;;;;;;6;3;00:10:02;14;210;None;None;False;RcAssistantTakeoff;19;False;False;False;True;True;2;1;0;False;Calibration;0;GpsAtti;634;-159;17;-2;2;-1;2.1;32.1038228004031;34.8132896061442;0;0;0;0;False;False;1024;1024;1024;1024;1024;;;;;;;;;;;;;;;;;;;;
13.348;;;;;;;;;;;;;;;;;;;;;;;;10/1/2015 9:20:51 AM;6.515594;2;0;0;1443691251308;;;;;;;;;;;;;;;;;;;;;;;;;;;;6;3;00:10:02.1000000;14;210;None;None;False;RcAssistantTakeoff;19;False;False;False;True;True;2;1;0;False;Calibration;0;GpsAtti;631;-191;13;-2;2;0;2.2;32.1038224336372;34.8132898792655;0;0;;;;;;;;;;;;;;;;;;;;;;;;;;;;;
13.452;;;;;;;;;;;;;;;;;;;;;;;;10/1/2015 9:20:51 AM;6.570259;1;0;0;1443691251412;;;;;;;;;;;;;;;;;;;;;;;;;;;;6;3;00:10:02.2000000;2;210;None;None;False;RcAssistantTakeoff;19;False;False;False;True;True;2;1;0;False;Calibration;0;GpsAtti;627;-136;16;-1;1;0;2.2;32.1038221665144;34.8132903660282;0;0;0;0;False;False;1024;1024;1024;1024;1016;;;;;;;;;;;;;;;;;;;;
13.551;;;;;;;;;;;;;;;;;;;;;;;;10/1/2015 9:20:51 AM;6.601544;1;0;0;1443691251511;;;;;;;;;;;;;;;;;;;;;;;;;;;;6;3;00:10:02.3000000;2;210;None;None;False;RcAssistantTakeoff;19;False;False;False;True;True;2;1;0;False;Calibration;0;GpsAtti;620;-71;14;-1;1;0;2.2;32.1038220617942;34.8132906738048;0;0;0;0;False;False;1024;1024;1024;1023;828;;;;;;;;;;;;;;;;;;;;
13.641;;;;;;;;;;;;;;;;;;;;;;;;10/1/2015 9:20:51 AM;6.621623;2;0;0;1443691251601;;;;;;;;;;;;;;;;;;;;;;;;;;;;6;3;00:10:02.4000000;2;210;None;None;False;RcAssistantTakeoff;19;False;False;False;True;True;2;1;0;False;Calibration;0;GpsAtti;614;-44;4;-1;2;0;2.2;32.1038220717603;34.8132908862116;0;0;0;0;False;False;1024;1024;1024;1024;682;;;;;;;;;;;;;;;;;;;;
13.743;;;;;;;;;;;;;;;;;;;;;;;;10/1/2015 9:20:51 AM;6.70329;3.162278;0;0;1443691251703;;;;;;;;;;;;;;;;;;;;;;;;;;;;6;3;00:10:02.5000000;2;210;None;None;False;RcAssistantTakeoff;19;False;False;False;True;True;2;1;0;False;Calibration;0;GpsAtti;614;-51;-9;-1;3;-1;2.2;32.1038217012962;34.8132916340198;0;0;0;0;False;False;1024;1024;1024;1024;720;;;;;;;;;;;;;;;;;;;;
13.846;;;;;;;;;;;;;;;;;;;;;;;;10/1/2015 9:20:51 AM;6.745825;4;0;0;1443691251806;;;;;;;;;;;;;;;;;;;;;;;;;;;;6;3;00:10:02.6000000;2;210;None;None;False;RcAssistantTakeoff;19;False;False;False;True;True;2;1;0;False;Calibration;0;GpsAtti;612;-77;-8;0;4;0;2.2;32.1038216023187;34.8132920694109;0;0;0;0;False;False;1024;1024;1024;1024;749;;;;;;;;;;;;;;;;;;;;
14.063;;;;;;;;;;;;;;;;;;;;;;;;10/1/2015 9:20:52 AM;6.81076;5;0;0;1443691252023;;;;0;0;YawFollow;623;0;-30;;;;;;;;;;;;;;;;;;;6;3;00:10:02.7000000;3;210;None;None;False;RcAssistantTakeoff;18;False;False;False;True;True;2;1;0;False;Calibration;0;GpsAtti;610;-139;0;0;5;0;2.2;32.1038214265865;34.8132927256731;0;0;0;0;False;False;1024;1024;1024;1024;930;;;;;;;;;;;;;;;;;;;;
14.201;;;;;;;;;;;;;;;;;;;;;;;;10/1/2015 9:20:52 AM;6.968991;5.09902;0;0;1443691252161;;;;;;;;;;;;;;;;;;;;;;;;;;;;6;3;00:10:02.9000000;3;210;None;None;False;RcAssistantTakeoff;19;False;False;False;True;True;2;1;0;False;Calibration;0;GpsAtti;617;-142;19;0;5;1;2.2;32.1038212096557;34.8132943825973;0;0;0;0;False;False;1024;1024;1024;1024;1024;;;;;;;;;;;;;;;;;;;;
14.288;;;;;;;;;;;;;;;;;;;;;;;;10/1/2015 9:20:52 AM;7.024456;4.472136;0;0;1443691252248;;;;;;;;;;;;;;;;;;;;;;;;;;;;6;3;00:10:03;3;210;None;None;False;RcAssistantTakeoff;19;False;False;False;True;True;2;1;0;False;Calibration;0;GpsAtti;618;-111;26;0;4;2;2.2;32.1038214122502;34.8132949198692;0;0;0;0;False;False;1024;1024;1024;1024;1002;;;;;;;;;;;;;;;;;;;;
14.363;;;;;;;;;;;;;;;;;;;;;;;;10/1/2015 9:20:52 AM;7.093467;4.472136;0;0;1443691252323;;;;;;;;;;;;;;;;;;;;;;;;;;;;6;3;00:10:03.1000000;3;210;None;None;False;RcAssistantTakeoff;19;False;False;False;True;True;2;1;0;False;Calibration;0;GpsAtti;617;-65;36;0;4;2;2.2;32.1038214342317;34.8132956505634;0;0;0;0;False;False;1024;1024;1024;1024;843;;;;;;;;;;;;;;;;;;;;
14.471;;;;;;;;;;;;;;;;;;;;;;;;10/1/2015 9:20:52 AM;7.146185;4.123106;0;0;1443691252431;;;;;;;;;;;;;;;;;;;;;;;;;;;;6;3;00:10:03.2000000;3;210;None;None;False;RcAssistantTakeoff;19;False;False;False;True;True;2;1;0;False;Calibration;0;GpsAtti;616;-53;46;0;4;1;2.2;32.1038216278412;34.8132961606831;0;0;0;0;False;False;1024;1024;1024;1024;735;;;;;;;;;;;;;;;;;;;;
14.557;;;;;;;;;;;;;;;;;;;;;;;;10/1/2015 9:20:52 AM;7.228099;4;0;0;1443691252517;;;;;;;;;;;;;;;;;;;;;;;;;;;;6;3;00:10:03.3000000;2;210;None;None;False;RcAssistantTakeoff;19;False;False;False;True;True;2;1;0;False;Calibration;0;GpsAtti;617;-51;61;0;4;0;2.2;32.1038216889936;34.8132970255592;0;0;0;0;False;False;1024;1024;1024;1024;732;;;;;;;;;;;;;;;;;;;;
14.65;;;;;;;;;;;;;;;;;;;;;;;;10/1/2015 9:20:52 AM;7.287717;3;0;0;1443691252610;;;;;;;;;;;;;;;;;;;;;;;;;;;;6;3;00:10:03.4000000;2;210;None;None;False;RcAssistantTakeoff;19;False;False;False;True;True;2;1;0;False;Calibration;0;GpsAtti;620;-85;49;0;3;0;2.2;32.1038215105196;34.8132976213831;0;0;0;0;False;False;1024;1103;1062;1024;765;;;;;;;;;;;;;;;;;;;;
14.756;;;;;;;;;;;;;;;;;;;;;;;;10/1/2015 9:20:52 AM;7.353931;3.162278;0;0;1443691252716;;;;0;0;YawFollow;624;0;-30;;;;;;;;;;;;;;;;;;;6;3;00:10:03.5000000;2;167;None;None;False;RcAssistantTakeoff;19;False;False;False;True;True;2;1;0;False;Calibration;0;GpsAtti;618;-134;42;0;3;1;2.2;32.1038216044775;34.8132983141585;0;0;0;0;False;False;1024;1024;1366;1024;855;;;;;;;;;;;;;;;;;;;;
14.848;;;;;;;;;;;;;;;;;;;;;;;;10/1/2015 9:20:52 AM;7.388938;2.828427;0;0;1443691252808;;;;;;;;;;;;;;;;;;;;;;;;;;;;6;3;00:10:03.6000000;2;167;None;None;False;RcAssistantTakeoff;19;False;False;False;True;True;2;1;0;False;Calibration;0;GpsAtti;616;-142;40;0;2;2;2.2;32.1038217462848;34.8132986455278;0;0;0;0;False;False;1024;1024;1474;1024;843;;;;;;;;;;;;;;;;;;;;
14.943;;;;;;;;;;;;;;;;;;;;;;;;10/1/2015 9:20:52 AM;7.451329;3.162278;0;0;1443691252903;;;;;;;;;;;;;;;;;;;;;;;;;;;;6;3;00:10:03.7000000;2;167;None;None;False;RcAssistantTakeoff;19;False;False;False;True;True;2;1;0;False;Calibration;0;GpsAtti;618;-138;47;0;1;3;2.2;32.1038217782134;34.8132993054689;0;0;0;0;False;False;1024;1024;1473;1024;814;;;;;;;;;;;;;;;;;;;;
15.056;0;0;Normal;32.81;7/1/2015 12:00:00 AM;456;-16159;-2147483648;13;100;4385;1447;14.424;33;;;;;;;;;;10/1/2015 9:20:53 AM;7.491015;4;0;0;1443691253016;;;;;;;;;;;;;;;;;;;;;;;;;;;;6;3;00:10:03.8000000;2;167;None;None;False;RcAssistantTakeoff;19;False;False;False;True;True;2;1;0;False;Calibration;0;GpsAtti;624;-119;33;-2;0;4;2.2;32.1038221202332;34.8132994292995;0;0;0;0;False;False;1024;1024;1395;1024;815;;;;;;;33;14.307;0;NonGohome;None;4.803918;817.0587;10;18;0;22;209;;
15.311;;;;;;;;;;;;;;;;;;;;;;;;10/1/2015 9:20:53 AM;7.54351;5;0;0;1443691253271;;;;;;;;;;;;;;;;;;;;;;;;;;;;6;3;00:10:03.9000000;3;167;None;None;False;RcAssistantTakeoff;19;False;False;False;True;True;2;1;0;False;Calibration;0;GpsAtti;627;-103;23;-7;0;5;2.2;32.103822564712;34.8132996207206;0;0;0;0;False;False;1024;1024;1251;1024;868;;;;;;;;;;;;;;;;;;;;
15.438;;;;;;;;;;;;;;;;;;;;;;;;10/1/2015 9:20:53 AM;7.651832;5;0;0;1443691253398;;;;;;;;;;;;;;;;;;;;;;;;;;;;6;3;00:10:04.1000000;5;167;None;None;False;RcAssistantTakeoff;19;False;False;False;True;True;2;1;0;False;Calibration;0;GpsAtti;623;-92;37;-15;0;5;2.5;32.1038234642385;34.8133000682206;0;0;0;0;False;False;1024;1024;1024;1024;1024;;;;;;;;;;;;;;;;;;;;
15.501;;;;;;;;;;;;;;;;;;;;;;;;10/1/2015 9:20:53 AM;7.711315;5;0;0;1443691253461;;;;;;;;;;;;;;;;;;;;;;;;;;;;6;3;00:10:04.2000000;7;167;None;None;False;RcAssistantTakeoff;19;False;False;False;True;True;2;1;0;False;Calibration;0;GpsAtti;623;-92;33;-13;0;5;2.6;32.103824000662;34.8133000670422;0;0;;;;;;;;;;;;;;;;;;;;;;;;;;;;;
15.568;;;;;;;;;;;;;;;;;;;;;;;;10/1/2015 9:20:53 AM;7.756608;4;0;0;1443691253528;;;;;;;;;;;;;;;;;;;;;;;;;;;;6;3;00:10:04.3000000;9;167;None;None;False;RcAssistantTakeoff;18;False;False;False;True;True;2;1;0;False;Calibration;0;GpsAtti;620;-69;35;-10;0;4;2.7;32.1038242663082;34.8133004315524;0;0;0;0;False;False;1024;1024;1352;1024;1024;;;;;;;;;;;;;;;;;;;;
15.653;;;;;;;;;;;;;;;;;;;;;;;;10/1/2015 9:20:53 AM;7.799469;3;0;0;1443691253613;;;;0;0;YawFollow;623;0;-30;;;;;;;;;;;;;;;;;;;6;3;00:10:04.4000000;10;167;None;None;False;RcAssistantTakeoff;18;False;False;False;True;True;2;1;0;False;Calibration;0;GpsAtti;616;-62;32;-6;0;3;2.7;32.1038246482968;34.8133005009302;0;0;0;0;False;False;1024;1024;1473;1024;1024;;;;;;;;;;;;;;;;;;;;
15.759;;;;;;;;;;;;;;;;;;;;;;;;10/1/2015 9:20:53 AM;7.834805;2.236068;0;0;1443691253719;;;;;;;;;;;;;;;;;;;;;;;;;;;;6;3;00:10:04.5000000;2;167;None;None;False;RcAssistantTakeoff;18;False;False;False;True;True;2;1;0;False;Calibration;0;GpsAtti;612;-52;22;-4;1;2;2.8;32.103824847175;34.8133007934415;0;0;0;0;False;False;1024;1024;1505;1024;1024;;;;;;;;;;;;;;;;;;;;
15.891;;;;;;;;;;;;;;;;;;;;;;;;10/1/2015 9:20:53 AM;7.87773;2.236068;0;0;1443691253851;;;;;;;;;;;;;;;;;;;;;;;;;;;;6;3;00:10:04.6000000;2;167;None;None;False;RcAssistantTakeoff;18;False;False;False;True;True;2;1;0;False;Calibration;0;GpsAtti;607;-55;13;-4;1;2;2.8;32.1038248805565;34.8133012465298;0;0;0;0;False;False;1024;1024;1380;1024;1024;;;;;;;;;;;;;;;;;;;;
15.955;;;;;;;;;;;;;;;;;;;;;;;;10/1/2015 9:20:53 AM;7.908901;1.414214;0;0;1443691253915;;;;0;0;YawFollow;622;0;-30;;;;;;;;;;;;;;;;;;;6;3;00:10:04.7000000;3;167;None;None;False;RcAssistantTakeoff;18;False;False;False;True;True;2;1;0;False;Calibration;0;GpsAtti;602;-47;29;-5;1;1;2.8;32.1038248328777;34.8133015719947;0;0;0;0;False;False;1024;1024;1228;1024;1024;;;;;;;;;;;;;;;;;;;;
16.053;0;0;Normal;32.81;7/1/2015 12:00:00 AM;456;-5992;-2147483648;13;100;4385;1447;14.169;33;;;;;;;;;;10/1/2015 9:20:54 AM;7.931273;1.414214;0;0;1443691254013;;;;;;;;;;;;;;;;;;;;;;;;;;;;6;3;00:10:04.8000000;3;167;None;None;False;RcAssistantTakeoff;18;False;False;False;True;True;2;1;0;False;Calibration;0;GpsAtti;601;-40;36;-8;1;1;2.9;32.1038249593066;34.8133017566962;0;0;0;0;False;False;1024;1024;1319;1024;1024;;;;;;;33;14.217;0;NonGohome;None;4.79235;817.0587;10;18;0;21;209;;
16.167;;;;;;;;;;;;;;;;;;;;;;;;10/1/2015 9:20:54 AM;7.951948;1;0;0;1443691254127;;;;0;0;YawFollow;621;0;-30;;;;;;;;;;;;;;;;;;;6;3;00:10:04.9000000;3;167;None;None;False;RcAssistantTakeoff;19;False;False;False;True;True;2;1;0;False;Calibration;0;GpsAtti;606;-48;33;-13;1;0;3;32.1038249472847;34.8133019752895;0;0;0;0;False;False;1024;1024;1630;1024;1024;;;;;;;;;;;;;;;;;;;;
16.274;;;;;;;;;;;;;;;;;;;;;;;;10/1/2015 9:20:54 AM;7.989378;1;0;0;1443691254234;;;;;;;;;;;;;;;;;;;;;;;;;;;;6;3;00:10:05;2;167;None;None;False;RcAssistantTakeoff;19;False;False;False;True;True;2;1;0;False;Calibration;0;GpsAtti;610;-66;35;-13;1;0;3.1;32.1038249145283;34.8133023699883;0;0;0;0;False;False;1024;1024;1480;1024;1024;;;;;;;;;;;;;;;;;;;;
16.371;;;;;;;;;;;;;;;;;;;;;;;;10/1/2015 9:20:54 AM;8.037504;2;0;0;1443691254331;;;;;;;;;;;;;;;;;;;;;;;;;;;;6;3;00:10:05.1000000;3;167;None;None;False;RcAssistantTakeoff;19;False;False;False;True;True;2;1;0;False;Calibration;0;GpsAtti;613;-83;49;-14;2;0;3.2;32.1038246536927;34.8133027775076;0;0;0;0;False;False;1024;1024;1000;1024;1024;;;;;;;;;;;;;;;;;;;;
16.475;;;;;;;;;;;;;;;;;;;;;;;;10/1/2015 9:20:54 AM;8.054814;1;0;0;1443691254435;;;;;;;;;;;;;;;;;;;;;;;;;;;;6;3;00:10:05.2000000;4;167;None;None;False;RcAssistantTakeoff;19;False;False;False;True;True;2;1;0;False;Calibration;0;GpsAtti;614;-96;54;-16;1;0;3.4;32.1038246083313;34.813302952994;0;0;0;0;False;False;1024;1024;1024;1024;928;;;;;;;;;;;;;;;;;;;;
16.577;;;;;;;;;;;;;;;;;;;;;;;;10/1/2015 9:20:54 AM;8.125505;0;0;0;1443691254537;;;;;;;;;;;;;;;;;;;;;;;;;;;;6;3;00:10:05.3000000;3;167;None;None;False;RcAssistantTakeoff;19;False;False;False;True;True;2;1;0;False;Calibration;0;GpsAtti;614;-93;57;-19;0;0;3.5;32.1038241036602;34.8133034105887;0;0;0;0;False;False;1024;1024;1024;1024;698;;;;;;;;;;;;;;;;;;;;
16.667;;;;;;;;;;;;;;;;;;;;;;;;10/1/2015 9:20:54 AM;8.135388;1;0;0;1443691254627;;;;0;0;YawFollow;620;0;-30;;;;;;;;;;;;;;;;;;;6;3;00:10:05.4000000;4;167;None;None;False;RcAssistantTakeoff;19;False;False;False;True;True;2;1;0;False;Calibration;0;GpsAtti;609;-99;47;-17;0;-1;3.7;32.1038240179752;34.8133034393965;0;0;0;0;False;False;1024;1024;1024;1024;565;;;;;;;;;;;;;;;;;;;;
16.745;;;;;;;;;;;;;;;;;;;;;;;;10/1/2015 9:20:54 AM;8.190176;1;0;0;1443691254705;;;;;;;;;;;;;;;;;;;;;;;;;;;;6;3;00:10:05.5000000;6;167;None;None;False;RcAssistantTakeoff;19;False;False;False;True;True;2;1;0;False;Calibration;0;GpsAtti;604;-113;34;-14;0;-1;3.8;32.1038235436369;34.813303601845;0;0;0;0;False;False;1024;1024;1024;1016;477;;;;;;;;;;;;;;;;;;;;
16.842;;;;;;;;;;;;;;;;;;;;;;;;10/1/2015 9:20:54 AM;8.241098;1;0;0;1443691254802;;;;0;0;YawFollow;619;0;-30;;;;;;;;;;;;;;;;;;;6;3;00:10:05.6000000;7;167;None;None;False;RcAssistantTakeoff;19;False;False;False;True;True;2;1;0;False;Calibration;0;GpsAtti;598;-165;19;-10;0;-1;3.9;32.1038231416941;34.8133038627642;0;0;0;0;False;False;1024;1024;1024;1024;488;;;;;;;;;;;;;;;;;;;;
16.941;;;;;;;;;;;;;;;;;;;;;;;;10/1/2015 9:20:54 AM;8.308838;1;0;0;1443691254901;;;;0;0;YawFollow;618;-8;-30;;;;;;;;;;;;;;;;;;;6;3;00:10:05.7000000;3;167;None;None;False;RcAssistantTakeoff;19;False;False;False;True;True;2;1;0;False;Calibration;0;GpsAtti;592;-239;13;-6;0;-1;4;32.1038225455049;34.8133040192243;0;0;0;0;False;False;1024;1024;1024;1024;485;;;;;;;;;;;;;;;;;;;;
17.048;0;0;Normal;32.81;7/1/2015 12:00:00 AM;456;-2420;-2147483648;13;100;4385;1447;14.15;33;;;;;;;;;;10/1/2015 9:20:55 AM;8.320092;1;0;0;1443691255008;;;;0;0;YawFollow;617;-18;-31;;;;;;;;;;;;;;;;;;;6;3;00:10:05.8000000;2;167;None;None;False;RcAssistantTakeoff;19;False;False;False;True;True;2;1;0;False;Calibration;0;GpsAtti;588;-278;9;-4;-1;0;4;32.1038224546576;34.8133039660755;0;0;0;0;False;False;1024;1024;1024;1024;489;;;;;;;33;14.545;0;NonGohome;None;4.778501;817.0587;10;18;0;20;209;;
17.144;;;;;;;;;;;;;;;;;;;;;;;;10/1/2015 9:20:55 AM;8.369961;2.236068;0;0;1443691255104;;;;0;0;YawFollow;616;-11;-30;;;;;;;;;;;;;;;;;;;6;3;00:10:05.9000000;3;167;None;None;False;RcAssistantTakeoff;19;False;False;False;True;True;2;1;0;False;Calibration;0;GpsAtti;584;-287;10;-2;-2;1;4;32.1038220610015;34.8133042215386;0;0;0;0;False;False;1024;1024;1024;1024;501;;;;;;;;;;;;;;;;;;;;
17.273;;;;;;;;;;;;;;;;;;;;;;;;10/1/2015 9:20:55 AM;8.418425;5.656854;0;0;1443691255233;;;;0;0;YawFollow;615;0;-30;;;;;;;;;;;;;;;;;;;6;3;00:10:06;2;167;None;None;False;RcAssistantTakeoff;19;False;False;False;True;True;2;1;0;False;Calibration;0;GpsAtti;587;-281;13;-2;-4;4;4;32.1038223515367;34.8133038379533;0;0;0;0;False;False;1024;1024;1024;1024;529;;;;;;;;;;;;;;;;;;;;
17.444;;;;;;;;;;;;;;;;;;;;;;;;10/1/2015 9:20:55 AM;8.547788;11.40175;0;0;1443691255404;;;;;;;;;;;;;;;;;;;;;;;;;;;;6;3;00:10:06.2000000;3;167;None;None;False;RcAssistantTakeoff;19;False;False;False;True;True;2;1;0;False;Calibration;0;GpsAtti;607;-254;6;-1;-7;9;4;32.103823130449;34.8133028176263;0;0;0;0;False;False;1024;1024;1024;1024;1009;;;;;;;;;;;;;;;;;;;;
17.548;;;;;;;;;;;;;;;;;;;;;;;;10/1/2015 9:20:55 AM;8.687531;12.20656;0;0;1443691255508;;;;0;0;YawFollow;613;0;-30;;;;;;;;;;;;;;;;;;;6;3;00:10:06.3000000;3;167;None;None;False;RcAssistantTakeoff;19;False;False;False;True;True;2;1;0;False;Calibration;0;GpsAtti;611;-254;3;-2;-7;10;4;32.1038241656558;34.8133019732975;0;0;0;0;False;False;1024;1024;1024;1024;929;;;;;;;;;;;;;;;;;;;;
17.644;;;;;;;;;;;;;;;;;;;;;;;;10/1/2015 9:20:55 AM;8.836643;15.26434;0;0;1443691255604;;;;;;;;;;;;;;;;;;;;;;;;;;;;6;3;00:10:06.4000000;3;167;None;None;False;RcAssistantTakeoff;19;False;False;False;True;True;2;1;0;False;Calibration;0;GpsAtti;612;-223;1;-1;-8;13;4;32.1038252754048;34.8133010811397;0;0;0;0;False;False;1024;1024;1024;1024;711;;;;;;;;;;;;;;;;;;;;
17.747;;;;;;;;;;;;;;;;;;;;;;;;10/1/2015 9:20:55 AM;8.968989;15.26434;0;0;1443691255707;;;;;;;;;;;;;;;;;;;;;;;;;;;;6;3;00:10:06.5000000;3;167;None;None;False;RcAssistantTakeoff;19;False;False;False;True;True;2;1;0;False;Calibration;0;GpsAtti;607;-97;4;0;-8;13;4;32.1038262567586;34.8133002831201;0;0;0;0;False;False;1024;1024;1024;1024;687;;;;;;;;;;;;;;;;;;;;
17.887;;;;;;;;;;;;;;;;;;;;;;;;10/1/2015 9:20:55 AM;9.131469;14.4222;0;0;1443691255847;;;;;;;;;;;;;;;;;;;;;;;;;;;;6;3;00:10:06.6000000;3;167;None;None;False;RcAssistantTakeoff;19;False;False;False;True;True;2;1;0;False;Calibration;0;GpsAtti;602;-41;7;0;-8;12;4;32.103827481272;34.8132993377515;0;0;0;0;False;False;1024;1024;1024;1024;633;;;;;;;;;;;;;;;;;;;;
18.029;;;;;;;;;;;;;;;;;;;;;;;;10/1/2015 9:20:55 AM;9.322435;14.4222;0;0;1443691255989;;;;0;0;YawFollow;612;0;-30;;;;;;;;;;;;;;;;;;;6;3;00:10:06.7000000;2;167;None;None;False;RcAssistantTakeoff;19;False;False;False;True;True;2;1;0;False;Calibration;0;GpsAtti;598;-115;3;0;-8;12;4;32.1038289696204;34.8132983199001;0;0;0;0;False;False;1024;1024;1024;1024;606;;;;;;;;;;;;;;;;;;;;
