RelativeTime;CenterBattery.LastStudyCycle;CenterBattery.TotalStudyCycle;CenterBattery.ConnectionStatus;CenterBattery.Temperature;CenterBattery.ProductDate;CenterBattery.SerialNumber;CenterBattery.Current;CenterBattery.ErrorType;CenterBattery.LoopNum;CenterBattery.Life;CenterBattery.FullCapacity;CenterBattery.CurrentCapacity;CenterBattery.CurrentPV;CenterBattery.RelativeCapacity;Recover.BatterySerialNumber;Recover.RemoteSerialNumber;Recover.CameraSerialNumber;Recover.ActiveTime;Recover.PlaneName;Recover.FlyControllerSerialNumber;Recover.AppVersion;Recover.AppType;Recover.DroneType;Custom.UpdateTime;Custom.Distance;Custom.HSpeed;Custom.IsVideo;Custom.IsPhoto;Custom.Timestamp;Deform.DeformProtected;Deform.TripodStatus;Deform.DeformMode;Gimbal.YawAngle;Gimbal.RollAdjust;Gimbal.Mode;Gimbal.Yaw;Gimbal.Roll;Gimbal.Pitch;Home.Height;Home.Latitude;Home.Longitude;Home.GoHomeHeight;Home.ReachedLimitHeight;Home.ReachedLimitDistance;Home.IsMultipleModeOpen;Home.IsIOCEnabled;Home.IsHomeRecord;Home.IsDynamicHomePointEnable;Home.IsCompassCeleing;Home.IsBeginnerMode;Home.HasGoHome;Home.IOCMode;Home.GoHomeStatus;Home.GoHomeMode;Home.CompassCeleStatus;Home.AirCraftHeadDirection;Osd.FlycVersion;Osd.MotorRevolution;Osd.FlyTime;Osd.SwaveHeight;Osd.Battery;Osd.NonGpsCause;Osd.MotorFailCause;Osd.MotorFailed;Osd.FlightAction;Osd.GpsNum;Osd.CanIOCWork;Osd.IsVisionUsed;Osd.IsSwaveWork;Osd.IsMotorUp;Osd.IsImuPreheated;Osd.GroundOrSky;Osd.ModeChannel;Osd.GoHomeStatus;Osd.CompassError;Osd.FlycCommand;Osd.RcState;Osd.FlycState;Osd.Yaw;Osd.Roll;Osd.Pitch;Osd.ZSpeed;Osd.YSpeed;Osd.XSpeed;Osd.Height;Osd.Latitude;Osd.Longitude;Osd.VoltageWarning;Osd.NonGpsCauseRaw;Rc.Custom2Status;Rc.Custom1Status;Rc.ShutterStatus;Rc.RecordStatus;Rc.GyroValue;Rc.Rudder;Rc.Throttle;Rc.Elevator;Rc.Aileron;RcGps.GpsStatus;RcGps.GpsNum;RcGps.YSpeed;RcGps.XSpeed;RcGps.Longitude;RcGps.Latitude;SmartBattery.Battery;SmartBattery.Voltage;SmartBattery.GoHomeCountDown;SmartBattery.SmartGoHomeStatus;SmartBattery.BatteryStatus;SmartBattery.VolumeConsume;SmartBattery.SafeFlyRadius;SmartBattery.LandBattery;SmartBattery.GoHomeBattery;SmartBattery.LandTime;SmartBattery.GoHomeTime;SmartBattery.UsefulTime;AppTip.Text;AppWarn.Text
0;;;;;;;;;;;;;;;;;;;;;;;;10/22/2015 9:08:34 AM;0;0;0;0;1445504914197;;;;0;0;YawFollow;-747;0;0;;;;;;;;;;;;;;;;;;;6;1;00:00:00;1;69;None;None;False;RcAssistantTakeoff;16;False;True;False;True;True;0;2;0;False;Calibration;0;GpsAtti;-793;-60;21;0;0;0;0;32.1032221444967;34.8120658593423;0;0;0;0;False;False;1024;1684;364;364;364;;;;;;;;;;;;;;;;;;;;
0.097;0;0;Normal;32.11;7/1/2015 12:00:00 AM;456;-1023;-2147483648;15;100;4382;2629;15.668;60;;;;;;;;;;10/22/2015 9:08:34 AM;0.004559074;0;0;0;1445504914294;True;FoldComplete;Normal;0;0;YawFollow;-748;0;0;16.01854;32.1032301269865;34.8120584408204;30;False;False;False;False;True;False;False;False;False;CourseLock;0;1;0;1;6;1;00:00:00.1000000;1;69;None;None;False;RcAssistantTakeoff;16;False;True;False;True;True;0;2;0;False;Calibration;0;GpsAtti;-793;-61;21;0;0;0;0;32.1032221845315;34.8120658703368;0;0;;;;;;;;;;;;;;;;60;15.859;0;NonGohome;None;0;0;10;15;0;0;0;;
0.195;;;;;;;;;;;;;;;;;;;;;;;;10/22/2015 9:08:34 AM;0.08534443;0;0;0;1445504914392;;;;;;;;;;;;;;;;;;;;;;;;;;;;6;1;00:00:00.2000000;1;69;None;None;False;RcAssistantTakeoff;16;False;True;True;True;True;0;2;0;False;Calibration;0;GpsAtti;-794;-61;21;0;0;0;0;32.1032228246113;34.8120662790975;0;0;;;;;;;;;;;;;;;;;;;;;;;;;;;;;
0.294;;;;;;;;;;;;;;;;;;;;;;;;10/22/2015 9:08:34 AM;0.1002378;0;0;0;1445504914491;;;;;;;;;;;;;;;;;;;;;;;;;;;;6;1;00:00:00.3000000;1;69;None;None;False;RcAssistantTakeoff;16;False;True;True;True;True;0;2;0;False;Calibration;0;GpsAtti;-794;-61;20;0;0;0;0;32.1032226940653;34.8120662420058;0;0;;;;;;;;;;;;;;;;;;;;;;;;;;;;;
0.399;;;;;;;;;;;;;;;;;;;;;;;;10/22/2015 9:08:34 AM;0.226162;0;0;0;1445504914596;;;;0;0;YawFollow;-749;0;0;;;;;;;;;;;;;;;;;;;6;1;00:00:00.4000000;1;69;None;None;False;RcAssistantTakeoff;16;False;True;True;True;True;0;2;0;False;Calibration;0;GpsAtti;-794;-62;20;0;0;0;0;32.1032229309052;34.8120675468335;0;0;;;;;;;;;;;;;;;;;;;;;;;;;;;;;
0.499;;;;;;;;;;;;;;;;;;;;;;;;10/22/2015 9:08:34 AM;0.2301368;0;0;0;1445504914696;;;;;;;;;;;;;;;;;;;;;;;;;;;;6;1;00:00:00.5000000;1;69;None;None;False;RcAssistantTakeoff;16;False;True;True;True;True;0;2;0;False;Calibration;0;GpsAtti;-794;-62;20;0;0;0;0;32.103222966728;34.8120675483239;0;0;;;;;;;;;;;;;;;;;;;;;;;;;;;;;
0.597;;;;;;;;;;;;;;;;;;;;;;;;10/22/2015 9:08:34 AM;0.2902295;0;0;0;1445504914794;True;FoldComplete;Protect;;;;;;;;;;;;;;;;;;;;;;;;;6;1;00:00:00.6000000;1;69;None;None;False;RcAssistantTakeoff;16;False;False;True;True;True;0;2;0;False;Calibration;0;GpsAtti;-795;-63;20;0;0;0;0;32.1032233028918;34.8120680477048;0;0;;;;;;;;;;;;;;;;;;;;;;;;;;;;;
0.694;;;;;;;;;;;;;;;;;;;;;;;;10/22/2015 9:08:34 AM;0.3015869;0;0;0;1445504914891;;;;;;;;;;;;;;;;;;;;;;;;;;;;6;1;00:00:00.7000000;1;69;None;None;False;RcAssistantTakeoff;16;False;False;True;True;True;0;2;0;False;Calibration;0;GpsAtti;-795;-63;20;0;0;0;0;32.1032232205102;34.8120679762078;0;0;;;;;;;;;;;;;;;;;;;;;;;;;;;;;
0.791;;;;;;;;;;;;;;;;;;;;;;;;10/22/2015 9:08:34 AM;0.3775937;0;0;0;1445504914988;;;;0;0;YawFollow;-750;0;0;;;;;;;;;;;;;;;;;;;6;1;00:00:00.8000000;1;69;None;None;False;RcAssistantTakeoff;15;False;False;True;True;True;0;2;0;False;Calibration;0;GpsAtti;-796;-63;20;0;0;0;0;32.1032235545019;34.8120672729851;0;0;;;;;;;;;;;;;;;;;;;;;;;;;;;;;
0.894;;;;;;;;;;;;;;;;;;;;;;;;10/22/2015 9:08:35 AM;0.3812117;0;0;0;1445504915091;;;;;;;;;;;;;;;;;;;;;;;;;;;;6;1;00:00:00.9000000;1;69;None;None;False;RcAssistantTakeoff;15;False;False;True;True;True;0;2;0;False;Calibration;0;GpsAtti;-796;-64;19;0;0;0;0;32.1032235868018;34.8120672675703;0;0;;;;;;;;;;;;;;;;;;;;;;;;;;;;;
0.994;;;;;;;;;;;;;;;;;;;;;;;;10/22/2015 9:08:35 AM;0.4745402;0;0;0;1445504915191;;;;0;0;YawFollow;-751;0;0;;;;;;;;;;;;;;;;;;;6;1;00:00:01;1;69;None;None;False;RcAssistantTakeoff;15;False;False;True;True;True;0;2;0;False;Calibration;0;GpsAtti;-796;-64;19;0;0;0;0;32.1032229745301;34.8120679460322;0;0;0;0;False;False;1024;1684;364;589;460;;;;;;;;;;;;;;;;;;;;
1.099;0;0;Normal;32.11;7/1/2015 12:00:00 AM;456;-1067;-2147483648;15;100;4382;2629;15.668;60;;;;;;;;;;10/22/2015 9:08:35 AM;0.477955;0;0;0;1445504915296;;;;;;;;;;;;;;;;;;;;;;;;;;;;6;1;00:00:01.1000000;1;69;None;None;False;RcAssistantTakeoff;15;False;False;True;True;True;0;2;0;False;Calibration;0;GpsAtti;-797;-64;19;0;0;0;0;32.1032230044927;34.8120679376774;0;0;0;0;False;False;1024;1684;364;1024;1024;;;;;;;60;15.841;0;NonGohome;None;0;0;10;15;0;0;0;;
1.197;;;;;;;;;;;;;;;;;;;;;;;;10/22/2015 9:08:35 AM;0.5505294;0;0;0;1445504915394;;;;;;;;;;;;;;;;;;;;;;;;;;;;6;1;00:00:01.2000000;1;69;None;None;False;RcAssistantTakeoff;15;False;False;True;True;True;0;2;0;False;Calibration;0;GpsAtti;-797;-64;19;0;0;0;0;32.1032236343424;34.8120677287197;0;0;0;0;False;False;1024;1638;364;1024;1024;;;;;;;;;;;;;;;;;;;;
1.292;;;;;;;;;;;;;;;;;;;;;;;;10/22/2015 9:08:35 AM;0.5590159;0;0;0;1445504915489;;;;0;0;YawFollow;-752;0;0;;;;;;;;;;;;;;;;;;;6;1;00:00:01.3000000;1;69;None;None;False;RcAssistantTakeoff;15;False;False;True;True;True;0;2;0;False;Calibration;0;GpsAtti;-798;-66;21;0;0;0;0;32.1032235664292;34.8120676872653;0;0;0;0;False;False;1024;1496;364;1024;1024;;;;;;;;;;;;;;;;;;;;
1.498;;;;;;;;;;;;;;;;;;;;;;;;10/22/2015 9:08:35 AM;0.6049778;0;0;0;1445504915695;;;;0;0;YawFollow;-759;0;0;;;;;;;;;;;;;;;;;;;6;1;00:00:01.5000000;0;69;None;None;False;RcAssistantTakeoff;15;False;False;True;True;True;0;2;0;False;Calibration;0;GpsAtti;-800;-69;37;0;0;0;0;32.1032234933614;34.8120672079256;0;0;0;0;False;False;1024;1240;610;1024;1024;;;;;;;;;;;;;;;;;;;;
1.594;;;;;;;;;;;;;;;;;;;;;;;;10/22/2015 9:08:35 AM;0.6811409;0;0;0;1445504915791;;;;0;0;YawFollow;-778;0;0;;;;;;;;;;;;;;;;;;;6;1;00:00:01.6000000;0;69;None;None;False;RcAssistantTakeoff;16;False;False;True;True;True;0;2;0;False;Calibration;0;GpsAtti;-802;-66;38;0;0;0;0;32.1032237260442;34.812066448693;0;0;0;0;False;False;1024;1176;364;1024;1024;;;;;;;;;;;;;;;;;;;;
1.695;;;;;;;;;;;;;;;;;;;;;;;;10/22/2015 9:08:35 AM;0.6874977;0;0;0;1445504915892;;;;;;;;;;;;;;;;;;;;;;;;;;;;6;1;00:00:01.7000000;1;69;None;None;False;RcAssistantTakeoff;16;False;False;True;True;True;0;2;0;False;Calibration;0;GpsAtti;-802;-66;36;0;0;0;0;32.1032237708726;34.8120664067138;0;0;0;0;False;False;1024;1177;364;1024;1024;;;;;;;;;;;;;;;;;;;;
1.798;;;;;;;;;;;;;;;;;;;;;;;;10/22/2015 9:08:35 AM;0.7363852;0;0;0;1445504915995;;;;;;;;;;;;;;;;;;;;;;;;;;;;6;1;00:00:01.8000000;1;69;None;None;False;RcAssistantTakeoff;16;False;False;True;True;True;0;2;0;False;Calibration;0;GpsAtti;-802;-70;40;0;0;0;0;32.1032241922464;34.8120662543867;0;0;0;0;False;False;1024;1176;364;1024;1024;;;;;;;;;;;;;;;;;;;;
1.894;;;;;;;;;;;;;;;;;;;;;;;;10/22/2015 9:08:36 AM;0.7467036;0;0;0;1445504916091;;;;0;0;YawFollow;-779;0;0;;;;;;;;;;;;;;;;;;;6;1;00:00:01.9000000;2;69;None;None;False;RcAssistantTakeoff;16;False;False;True;True;True;0;2;0;False;Calibration;0;GpsAtti;-803;-70;44;0;0;0;0;32.1032241001035;34.8120662696299;0;0;0;0;False;False;1024;1157;364;1024;1024;;;;;;;;;;;;;;;;;;;;
1.994;;;;;;;;;;;;;;;;;;;;;;;;10/22/2015 9:08:36 AM;0.8054942;0;0;0;1445504916191;;;;0;0;YawFollow;-780;0;0;;;;;;;;;;;;;;;;;;;6;1;00:00:02;3;69;None;None;False;RcAssistantTakeoff;16;False;False;True;True;True;0;2;0;False;Calibration;0;AssistedTakeoff;-804;-67;41;0;0;0;0;32.103224126347;34.8120656475072;0;0;0;0;False;False;1024;1092;364;1024;1024;;;;;;;;;;;;;;;;;;;"Tips__RC Assisted Takeoff";
2.158;0;0;Normal;32.11;7/1/2015 12:00:00 AM;456;-1447;-2147483648;15;100;4382;2629;15.653;60;;;;;;;;;;10/22/2015 9:08:36 AM;0.8132505;0;0;0;1445504916355;;;;0;0;YawFollow;-781;0;0;;;;;;;;;;;;;;;;;;;6;1;00:00:02.1000000;3;69;None;None;False;RcAssistantTakeoff;16;False;False;True;True;True;0;2;0;False;Calibration;0;AssistedTakeoff;-802;-65;31;0;0;0;0;32.1032241715633;34.8120655848077;0;0;0;0;False;False;1024;1149;364;1024;1024;;;;;;;60;15.745;0;NonGohome;None;0;0;10;15;0;0;0;;
2.197;;;;;;;;;;;;;;;;;;;;;;;;10/22/2015 9:08:36 AM;0.8861067;0;0;0;1445504916394;;;;0;0;YawFollow;-783;0;0;;;;;;;;;;;;;;;;;;;6;1;00:00:02.2000000;3;69;None;None;False;RcAssistantTakeoff;16;False;False;True;True;True;0;2;0;False;Calibration;0;AssistedTakeoff;-801;-65;21;0;0;0;0;32.1032238122727;34.8120649385382;0;0;0;0;False;False;1024;1114;364;1024;1024;;;;;;;;;;;;;;;;;;;;
2.295;;;;;;;;;;;;;;;;;;;;;;;;10/22/2015 9:08:36 AM;0.890137;0;0;0;1445504916492;;;;0;0;YawFollow;-782;0;0;;;;;;;;;;;;;;;;;;;6;1;00:00:02.3000000;2;69;None;None;False;RcAssistantTakeoff;16;False;False;True;True;True;0;2;0;False;Calibration;0;AssistedTakeoff;-801;-64;20;0;0;0;0;32.1032238264085;34.8120648991996;0;0;0;0;False;False;1024;1024;439;1024;1024;;;;;;;;;;;;;;;;;;;;
2.393;;;;;;;;;;;;;;;;;;;;;;;;10/22/2015 9:08:36 AM;0.9468443;0;0;0;1445504916590;;;;;;;;;;;;;;;;;;;;;;;;;;;;6;1;00:00:02.4000000;2;69;None;None;False;RcAssistantTakeoff;16;False;False;True;True;True;0;2;0;False;Calibration;0;AssistedTakeoff;-802;-63;23;0;0;0;0;32.1032239318639;34.8120643112992;0;0;0;0;False;False;1024;1024;1161;1024;1024;;;;;;;;;;;;;;;;;;;;
2.492;;;;;;;;;;;;;;;;;;;;;;;;10/22/2015 9:08:36 AM;0.9531782;0;0;0;1445504916689;;;;0;0;YawFollow;-786;0;0;;;;;;;;;;;;;;;;;;;6;1;00:00:02.5000000;2;69;None;None;False;RcAssistantTakeoff;16;False;False;True;True;True;0;2;0;False;Calibration;0;AssistedTakeoff;-804;-64;22;0;0;0;0;32.1032238912052;34.812064358434;0;0;0;0;False;False;1024;1024;1039;1024;1024;;;;;;;;;;;;;;;;;;;;
2.598;;;;;;;;;;;;;;;;;;;;;;;;10/22/2015 9:08:36 AM;1.042707;0;0;0;1445504916795;;;;0;0;YawFollow;-789;0;0;;;;;;;;;;;;;;;;;;;6;1;00:00:02.6000000;2;69;None;None;False;RcAssistantTakeoff;16;False;False;True;True;True;0;2;0;False;Calibration;0;AssistedTakeoff;-804;-63;21;0;0;0;0;32.1032243007183;34.8120635409467;0;0;0;0;False;False;1024;1024;1425;1024;1024;;;;;;;;;;;;;;;;;;;;
2.697;;;;;;;;;;;;;;;;;;;;;;;;10/22/2015 9:08:36 AM;1.04726;0;0;0;1445504916894;;;;0;0;YawFollow;-791;0;0;;;;;;;;;;;;;;;;;;;6;1;00:00:02.7000000;2;69;None;None;False;RcAssistantTakeoff;16;False;False;True;True;True;0;2;0;False;Calibration;0;AssistedTakeoff;-804;-63;21;-1;0;0;0;32.1032243182865;34.8120634973526;0;0;0;0;False;False;1024;1024;1684;1024;1024;;;;;;;;;;;;;;;;;;;;
2.793;;;;;;;;;;;;;;;;;;;;;;;;10/22/2015 9:08:36 AM;1.113749;0;0;0;1445504916990;;;;0;0;YawFollow;-793;0;0;;;;;;;;;;;;;;;;;;;6;1;00:00:02.8000000;2;69;None;None;False;RcAssistantTakeoff;16;False;False;True;True;True;0;2;0;False;Calibration;0;AssistedTakeoff;-805;-63;22;-1;0;0;0.1;32.1032246735412;34.8120629298537;0;0;;;;;;;;;;;;;;;;;;;;;;;;;;;;;
2.912;;;;;;;;;;;;;;;;;;;;;;;;10/22/2015 9:08:37 AM;1.117125;0;0;0;1445504917109;;;;0;0;YawFollow;-794;0;0;;;;;;;;;;;;;;;;;;;6;1;00:00:02.9000000;2;69;None;None;False;RcAssistantTakeoff;16;False;False;True;True;True;0;2;0;False;Calibration;0;AssistedTakeoff;-805;-62;22;-1;0;0;0.1;32.1032246881651;34.812062898485;0;0;;;;;;;;;;;;;;;;;;;;;;;;;;;;;
2.991;;;;;;;;;;;;;;;;;;;;;;;;10/22/2015 9:08:37 AM;1.158757;0;0;0;1445504917188;;;;0;0;YawFollow;-795;0;0;;;;;;;;;;;;;;;;;;;6;1;00:00:03;2;69;None;None;False;RcAssistantTakeoff;16;False;False;True;True;True;0;2;0;False;Calibration;0;AssistedTakeoff;-807;-60;25;-1;0;0;0.1;32.1032245987343;34.8120624700845;0;0;0;0;False;False;1024;1024;1578;1024;1024;;;;;;;;;;;;;;;;;;;;
3.095;0;0;Normal;32.11;7/1/2015 12:00:00 AM;456;-4390;-2147483648;15;100;4382;2629;15.586;60;;;;;;;;;;10/22/2015 9:08:37 AM;1.174952;0;0;0;1445504917292;;;;0;0;YawFollow;-796;0;0;;;;;;;;;;;;;;;;;;;6;1;00:00:03.1000000;2;69;None;None;False;RcAssistantTakeoff;16;False;False;True;True;True;0;2;0;False;Calibration;0;AssistedTakeoff;-811;-57;35;-1;0;0;0.1;32.1032245176813;34.8120626128155;0;0;0;0;False;False;1024;1024;1320;1024;1024;;;;;;;60;15.524;0;NonGohome;None;0;0;10;16;0;23;0;;
3.2;;;;;;;;;;;;;;;;;;;;;;;;10/22/2015 9:08:37 AM;1.209948;1;0;0;1445504917397;;;;0;0;YawFollow;-798;0;0;;;;;;;;;;;;;;;;;;;6;1;00:00:03.2000000;3;69;None;None;False;RcAssistantTakeoff;16;False;False;True;True;True;0;2;0;False;Calibration;0;AssistedTakeoff;-815;-40;44;-2;1;0;0.1;32.103224391638;34.8120622728838;0;0;0;0;False;False;1024;1024;1166;1024;1024;;;;;;;;;;;;;;;;;;;;
3.298;;;;;;;;;;;;;;;;;;;;;;;;10/22/2015 9:08:37 AM;1.230366;2.236068;0;0;1445504917495;;;;0;0;YawFollow;-800;0;0;;;;;;;;;;;;;;;;;;;6;1;00:00:03.3000000;3;69;None;None;False;RcAssistantTakeoff;16;False;False;True;True;True;2;2;0;False;Calibration;0;GpsAtti;-814;-11;38;-5;2;-1;0.1;32.1032243090816;34.8120624662418;0;0;0;0;False;False;1024;1075;1359;1024;1024;;;;;;;;;;;;;;;;;;;;
3.406;;;;;;;;;;;;;;;;;;;;;;;;10/22/2015 9:08:37 AM;1.237466;3;0;0;1445504917603;;;;0;0;YawFollow;-801;0;0;;;;;;;;;;;;;;;;;;;6;1;00:00:03.4000000;3;69;None;None;False;RcAssistantTakeoff;16;False;False;True;True;True;2;2;0;False;Calibration;0;GpsAtti;-811;3;6;-7;3;0;0.2;32.1032242726412;34.8120625281005;0;0;0;0;False;False;1024;1024;1533;1024;1024;;;;;;;;;;;;;;;;;;;;
3.493;;;;;;;;;;;;;;;;;;;;;;;;10/22/2015 9:08:37 AM;1.271152;3;0;0;1445504917690;;;;;;;;;;;;;;;;;;;;;;;;;;;;6;1;00:00:03.5000000;4;69;None;None;False;RcAssistantTakeoff;16;False;False;True;True;True;2;2;0;False;Calibration;0;GpsAtti;-807;1;-15;-6;3;0;0.3;32.1032242209861;34.8120628798101;0;0;0;0;False;False;1024;1024;1684;1024;1024;;;;;;;;;;;;;;;;;;;;
3.595;;;;;;;;;;;;;;;;;;;;;;;;10/22/2015 9:08:37 AM;1.312067;3;0;0;1445504917792;True;FoldComplete;Normal;;;;;;;;;;;;;;;;;;;;;;;;;6;1;00:00:03.6000000;5;69;None;None;False;RcAssistantTakeoff;16;False;False;False;True;True;2;2;0;False;Calibration;0;GpsAtti;-803;-3;-22;-8;3;0;0.4;32.1032243286118;34.8120632944461;0;0;0;0;False;False;1024;1024;1682;1024;1024;;;;;;;;;;;;;;;;;;;;
3.697;;;;;;;;;;;;;;;;;;;;;;;;10/22/2015 9:08:37 AM;1.350715;3;0;0;1445504917894;;;;;;;;;;;;;;;;;;;;;;;;;;;;6;1;00:00:03.7000000;5;69;None;None;False;RcAssistantTakeoff;16;False;False;False;True;True;2;2;0;False;Calibration;0;GpsAtti;-798;-9;-30;-12;3;0;0.5;32.1032243234651;34.8120637038792;0;0;0;0;False;False;1024;1024;1684;1024;1024;;;;;;;;;;;;;;;;;;;;
3.799;;;;;;;;;;;;;;;;;;;;;;;;10/22/2015 9:08:37 AM;1.400254;3;0;0;1445504917996;;;;;;;;;;;;;;;;;;;;;;;;;;;;6;1;00:00:03.8000000;3;69;None;None;False;RcAssistantTakeoff;16;False;False;False;True;True;2;2;0;False;Calibration;0;GpsAtti;-795;-11;-38;-15;3;0;0.6;32.1032244397367;34.8120642106567;0;0;;;;;;;;;;;;;;;;;;;;;;;;;;;;;
3.902;;;;;;;;;;;;;;;;;;;;;;;;10/22/2015 9:08:38 AM;1.435601;3;0;0;1445504918099;;;;;;;;;;;;;;;;;;;;;;;;;;;;6;1;00:00:03.9000000;4;69;None;None;False;RcAssistantTakeoff;16;False;False;False;True;True;2;2;0;False;Calibration;0;GpsAtti;-795;-12;-45;-21;3;0;0.9;32.1032244470154;34.8120645850607;0;0;0;0;False;False;1024;1024;1079;1024;1024;;;;;;;;;;;;;;;;;;;;
3.994;;;;;;;;;;;;;;;;;;;;;;;;10/22/2015 9:08:38 AM;1.480395;3;0;0;1445504918191;;;;;;;;;;;;;;;;;;;;;;;;;;;;6;1;00:00:04;3;69;None;None;False;RcAssistantTakeoff;16;False;False;False;True;True;2;2;0;False;Calibration;0;GpsAtti;-796;-12;-53;-26;3;0;1.1;32.1032245296417;34.8120650496224;0;0;0;0;False;False;1024;1024;1024;1024;1024;;;;;;;;;;;;;;;;;;;;
4.196;0;0;Normal;32.11;7/1/2015 12:00:00 AM;456;-8326;-2147483648;15;100;4382;2629;15.365;60;;;;;;;;;;10/22/2015 9:08:38 AM;1.516673;2;0;0;1445504918393;;;;0;0;YawFollow;-800;0;0;;;;;;;;;;;;;;;;;;;6;1;00:00:04.1000000;3;69;None;None;False;RcAssistantTakeoff;16;False;False;False;True;True;2;2;0;False;Calibration;0;GpsAtti;-798;-11;-60;-31;2;0;1.5;32.1032244435599;34.8120654204385;0;0;;;;;;;;;;;;;;;;60;14.434;0;NonGohome;None;0;0;10;16;0;22;0;;
4.294;;;;;;;;;;;;;;;;;;;;;;;;10/22/2015 9:08:38 AM;1.583956;2;0;0;1445504918491;;;;;;;;;;;;;;;;;;;;;;;;;;;;6;1;00:00:04.3000000;3;69;None;None;False;RcAssistantTakeoff;16;False;False;False;True;True;2;2;0;False;Calibration;0;GpsAtti;-804;-13;-78;-29;2;0;2.2;32.103224576488;34.8120661159837;0;0;;;;;;;;;;;;;;;;;;;;;;;;;;;;;
4.391;;;;;;;;;;;;;;;;;;;;;;;;10/22/2015 9:08:38 AM;1.659877;3;0;0;1445504918588;;;;0;0;YawFollow;-801;0;0;;;;;;;;;;;;;;;;;;;6;1;00:00:04.4000000;2;69;None;None;False;RcAssistantTakeoff;16;False;False;False;True;True;2;2;0;False;Calibration;0;GpsAtti;-809;-18;-91;-25;3;0;2.5;32.1032248685573;34.8120668435124;0;0;;;;;;;;;;;;;;;;;;;;;;;;;;;;;
4.591;;;;;;;;;;;;;;;;;;;;;;;;10/22/2015 9:08:38 AM;1.692291;3;0;0;1445504918788;;;;;;;;;;;;;;;;;;;;;;;;;;;;6;1;00:00:04.5000000;4;69;None;None;False;RcAssistantTakeoff;16;False;False;False;True;True;2;2;0;False;Calibration;0;GpsAtti;-814;-24;-105;-22;3;0;2.7;32.1032248953539;34.8120671854887;0;0;;;;;;;;;;;;;;;;;;;;;;;;;;;;;
4.601;;;;;;;;;;;;;;;;;;;;;;;;10/22/2015 9:08:38 AM;1.739335;3;0;0;1445504918798;True;Stretching;Normal;;;;;;;;;;;;;;;;;;;;;;;;;6;1;00:00:04.6000000;3;69;None;None;False;RcAssistantTakeoff;16;False;False;False;True;True;2;2;0;False;Calibration;0;GpsAtti;-816;-36;-117;-18;3;0;2.9;32.1032252380249;34.8120674793509;0;0;;;;;;;;;;;;;;;;;;;;;;;;;;;;;
4.692;;;;;;;;;;;;;;;;;;;;;;;;10/22/2015 9:08:38 AM;1.817067;2;0;0;1445504918889;;;;;;;;;;;;;;;;;;;;;;;;;;;;6;1;00:00:04.7000000;4;69;None;None;False;RcAssistantTakeoff;16;False;False;False;True;True;2;2;0;False;Calibration;0;GpsAtti;-817;-42;-123;-14;2;0;3.1;32.1032253010241;34.8120682995837;0;0;;;;;;;;;;;;;;;;;;;;;;;;;;;;;
4.791;;;;;;;;;;;;;;;;;;;;;;;;10/22/2015 9:08:38 AM;1.865318;2;0;0;1445504918988;;;;0;0;YawFollow;-802;0;0;;;;;;;;;;;;;;;;;;;6;1;00:00:04.8000000;2;69;None;None;False;RcAssistantTakeoff;16;False;False;False;True;True;2;2;0;False;Calibration;0;GpsAtti;-816;-46;-130;-11;2;0;3.2;32.1032257206059;34.8120684350396;0;0;;;;;;;;;;;;;;;;;;;;;;;;;;;;;
4.895;;;;;;;;;;;;;;;;;;;;;;;;10/22/2015 9:08:39 AM;1.886856;1;0;0;1445504919092;;;;;;;;;;;;;;;;;;;;;;;;;;;;6;1;00:00:04.9000000;3;69;None;None;False;RcAssistantTakeoff;16;False;False;False;True;True;2;2;0;False;Calibration;0;GpsAtti;-813;-47;-134;-8;1;0;3.3;32.1032257013748;34.8120686621136;0;0;;;;;;;;;;;;;;;;;;;;;;;;;;;;;
4.992;;;;;;;;;;;;;;;;;;;;;;;;10/22/2015 9:08:39 AM;1.921614;1;0;0;1445504919189;;;;;;;;;;;;;;;;;;;;;;;;;;;;6;1;00:00:05;3;69;None;None;False;RcAssistantTakeoff;16;False;False;False;True;True;2;2;0;False;Calibration;0;GpsAtti;-811;-48;-130;-6;1;0;3.4;32.1032259373265;34.8120689045368;0;0;;;;;;;;;;;;;;;;;;;;;;;;;;;;;
5.096;0;0;Normal;32.11;7/1/2015 12:00:00 AM;456;-9662;-2147483648;15;100;4382;2629;14.891;60;;;;;;;;;;10/22/2015 9:08:39 AM;1.927745;0;0;0;1445504919293;;;;;;;;;;;;;;;;;;;;;;;;;;;;6;1;00:00:05.1000000;3;69;None;None;False;RcAssistantTakeoff;16;False;False;False;True;True;2;2;0;False;Calibration;0;GpsAtti;-810;-45;-121;-5;0;0;3.4;32.1032259121617;34.8120689623745;0;0;;;;;;;;;;;;;;;;60;15.282;0;NonGohome;None;2.312778;0;10;16;0;21;0;;
5.196;;;;;;;;;;;;;;;;;;;;;;;;10/22/2015 9:08:39 AM;1.96841;0;0;0;1445504919393;;;;;;;;;;;;;;;;;;;;;;;;;;;;6;1;00:00:05.2000000;3;69;None;None;False;RcAssistantTakeoff;16;False;False;False;True;True;2;2;0;False;Calibration;0;GpsAtti;-810;-45;-111;-3;0;0;3.5;32.1032261708643;34.812068657011;0;0;;;;;;;;;;;;;;;;;;;;;;;;;;;;;
5.293;;;;;;;;;;;;;;;;;;;;;;;;10/22/2015 9:08:39 AM;1.971007;1;0;0;1445504919490;;;;0;0;YawFollow;-803;0;0;;;;;;;;;;;;;;;;;;;6;1;00:00:05.3000000;3;69;None;None;False;RcAssistantTakeoff;16;False;False;False;True;True;2;2;0;False;Calibration;0;GpsAtti;-811;-41;-99;-2;-1;0;3.5;32.1032261942419;34.8120686586481;0;0;;;;;;;;;;;;;;;;;;;;;;;;;;;;;
5.391;;;;;;;;;;;;;;;;;;;;;;;;10/22/2015 9:08:39 AM;2.020905;1;0;0;1445504919588;;;;;;;;;;;;;;;;;;;;;;;;;;;;6;1;00:00:05.4000000;2;69;None;None;False;RcAssistantTakeoff;16;False;False;False;True;True;2;2;0;False;Calibration;0;GpsAtti;-810;-41;-86;-1;-1;0;3.5;32.1032263030004;34.8120681456453;0;0;;;;;;;;;;;;;;;;;;;;;;;;;;;;;
5.492;;;;;;;;;;;;;;;;;;;;;;;;10/22/2015 9:08:39 AM;2.041361;2;0;0;1445504919689;;;;;;;;;;;;;;;;;;;;;;;;;;;;6;1;00:00:05.5000000;2;69;None;None;False;RcAssistantTakeoff;16;False;False;False;True;True;2;2;0;False;Calibration;0;GpsAtti;-811;-38;-73;0;-2;0;3.5;32.1032262338437;34.8120679447263;0;0;;;;;;;;;;;;;;;;;;;;;;;;;;;;;
5.594;;;;;;;;;;;;;;;;;;;;;;;;10/22/2015 9:08:39 AM;2.086972;2;0;0;1445504919791;;;;;;;;;;;;;;;;;;;;;;;;;;;;6;1;00:00:05.6000000;2;69;None;None;False;RcAssistantTakeoff;16;False;False;False;True;True;2;2;0;False;Calibration;0;GpsAtti;-812;-36;-64;-2;-2;0;3.5;32.1032264240574;34.812067516245;0;0;0;0;False;False;1024;1024;1169;1024;1024;;;;;;;;;;;;;;;;;;;;
5.692;;;;;;;;;;;;;;;;;;;;;;;;10/22/2015 9:08:39 AM;2.114353;2;0;0;1445504919889;;;;;;;;;;;;;;;;;;;;;;;;;;;;6;1;00:00:05.7000000;2;69;None;None;False;RcAssistantTakeoff;16;False;False;False;True;True;2;2;0;False;Calibration;0;GpsAtti;-812;-36;-62;-1;-2;0;3.5;32.1032263613982;34.8120672356473;0;0;0;0;False;False;1024;1024;1298;1024;1024;;;;;;;;;;;;;;;;;;;;
5.792;;;;;;;;;;;;;;;;;;;;;;;;10/22/2015 9:08:39 AM;2.159415;2.236068;0;0;1445504919989;;;;;;;;;;;;;;;;;;;;;;;;;;;;6;1;00:00:05.8000000;2;69;None;None;False;RcAssistantTakeoff;16;False;False;False;True;True;2;2;0;False;Calibration;0;GpsAtti;-812;-35;-56;0;-2;-1;3.5;32.1032262524856;34.8120667756843;0;0;0;0;False;False;1024;1024;1295;1024;1024;;;;;;;;;;;;;;;;;;;;
5.991;;;;;;;;;;;;;;;;;;;;;;;;10/22/2015 9:08:40 AM;2.185712;2.236068;0;0;1445504920188;;;;;;;;;;;;;;;;;;;;;;;;;;;;6;1;00:00:05.9000000;3;69;None;None;False;RcAssistantTakeoff;16;False;False;False;True;True;2;2;0;False;Calibration;0;GpsAtti;-812;-30;-53;-1;-2;-1;3.5;32.1032262798173;34.8120664989151;0;0;0;0;False;False;1024;1024;1181;1024;1024;;;;;;;;;;;;;;;;;;;;
6;;;;;;;;;;;;;;;;;;;;;;;;10/22/2015 9:08:40 AM;2.217285;2.236068;0;0;1445504920197;;;;;;;;;;;;;;;;;;;;;;;;;;;;6;1;00:00:06;3;69;None;None;False;RcAssistantTakeoff;16;False;False;False;True;True;2;2;0;False;Calibration;0;GpsAtti;-813;-25;-48;-4;-2;-1;3.5;32.1032260228586;34.8120663548363;0;0;0;0;False;False;1024;1024;1024;1024;1024;;;;;;;;;;;;;;;;;;;;
6.094;;;;;;;;;;;;;;;;;;;;;;;;10/22/2015 9:08:40 AM;2.24714;2.828427;0;0;1445504920291;;;;0;0;YawFollow;-804;0;0;;;;;;;;;;;;;;;;;;;6;1;00:00:06.1000000;3;69;None;None;False;RcAssistantTakeoff;16;False;False;False;True;True;2;2;0;False;Calibration;0;GpsAtti;-813;-17;-50;-6;-2;-2;3.5;32.1032258441327;34.8120661182695;0;0;;;;;;;;;;;;;;;;;;;;;;;;;;;;;
6.194;;;;;;;;;;;;;;;;;;;;;;;;10/22/2015 9:08:40 AM;2.282526;2.828427;0;0;1445504920391;;;;;;;;;;;;;;;;;;;;;;;;;;;;6;1;00:00:06.2000000;3;69;None;None;False;RcAssistantTakeoff;16;False;False;False;True;True;2;2;0;False;Calibration;0;GpsAtti;-813;-11;-62;-6;-2;-2;3.6;32.1032255788707;34.8120659098441;0;0;;;;;;;;;;;;;;;;;;;;;;;;;;;;;
6.292;;;;;;;;;;;;;;;;;;;;;;;;10/22/2015 9:08:40 AM;2.313256;2.236068;0;0;1445504920489;;;;;;;;;;;;;;;;;;;;;;;;;;;;6;1;00:00:06.3000000;2;69;None;None;False;RcAssistantTakeoff;16;False;False;False;True;True;2;2;0;False;Calibration;0;GpsAtti;-814;-8;-72;-4;-1;-2;3.6;32.1032253690522;34.8120656971541;0;0;;;;;;;;;;;;;;;;;;;;;;;;;;;;;
6.493;;;;;;;;;;;;;;;;;;;;;;;;10/22/2015 9:08:40 AM;2.380835;1.414214;0;0;1445504920690;;;;;;;;;;;;;;;;;;;;;;;;;;;;6;1;00:00:06.5000000;3;69;None;None;False;RcAssistantTakeoff;16;False;False;False;True;True;2;2;0;False;Calibration;0;GpsAtti;-816;-4;-74;-2;-1;-1;3.7;32.1032247605198;34.8120657358859;0;0;;;;;;;;;;;;;;;;;;;;;;;;;;;;;
6.595;;;;;;;;;;;;;;;;;;;;;;;;10/22/2015 9:08:40 AM;2.392057;1;0;0;1445504920792;;;;;;;;;;;;;;;;;;;;;;;;;;;;6;1;00:00:06.6000000;2;69;None;None;False;RcAssistantTakeoff;16;False;False;False;True;True;2;2;0;False;Calibration;0;GpsAtti;-816;-3;-75;-1;0;-1;3.7;32.103224665218;34.8120657758922;0;0;;;;;;;;;;;;;;;;;;;;;;;;;;;;;
6.792;;;;;;;;;;;;;;;;;;;;;;;;10/22/2015 9:08:40 AM;2.43105;1;0;0;1445504920989;;;;0;0;YawFollow;-805;0;0;;;;;;;;;;;;;;;;;;;6;1;00:00:06.8000000;2;69;None;None;False;RcAssistantTakeoff;16;False;False;False;True;True;2;2;0;False;Calibration;0;GpsAtti;-816;-4;-77;0;0;-1;3.6;32.1032243277012;34.8120656599873;0;0;0;0;False;False;1024;1024;1051;1024;1024;;;;;;;;;;;;;;;;;;;;
7.004;0;0;Normal;32.11;7/1/2015 12:00:00 AM;456;-12083;-2147483648;15;100;4382;2629;15.077;60;;;;;;;;;;10/22/2015 9:08:41 AM;2.472049;1.414214;0;0;1445504921201;;;;;;;;;;;;;;;;;;;;;;;;;;;;6;1;00:00:07;2;69;None;None;False;RcAssistantTakeoff;16;False;False;False;True;True;2;2;0;False;Calibration;0;GpsAtti;-814;-2;-77;0;-1;-1;3.6;32.1032239614324;34.8120657193004;0;0;0;0;False;False;1024;1024;1203;1024;1024;;;;;;;;;;;;;;;;;;;;
7.195;;;;;;;;;;;;;;;;;;;;;;;;10/22/2015 9:08:41 AM;2.50244;1;0;0;1445504921392;;;;;;;;;;;;;;;;;;;;;;;;;;;;6;1;00:00:07.2000000;2;69;None;None;False;RcAssistantTakeoff;16;False;False;False;True;True;2;2;0;False;Calibration;0;GpsAtti;-811;0;-79;0;0;-1;3.6;32.1032237422691;34.8120659126504;0;0;0;0;False;False;1024;1024;1024;1024;1024;;;;;;;;;;;;;;;;;;;;
7.296;;;;;;;;;;;;;;;;;;;;;;;;10/22/2015 9:08:41 AM;2.517593;1;0;0;1445504921493;;;;0;0;YawFollow;-806;0;0;;;;;;;;;;;;;;;;;;;6;1;00:00:07.3000000;2;69;None;None;False;RcAssistantTakeoff;16;False;False;False;True;True;2;2;0;False;Calibration;0;GpsAtti;-810;-1;-80;0;-1;0;3.6;32.1032236530315;34.8120657910679;0;0;;;;;;;;;;;;;;;;;;;;;;;;;;;;;
7.394;;;;;;;;;;;;;;;;;;;;;;;;10/22/2015 9:08:41 AM;2.527422;1;0;0;1445504921591;;;;0;0;YawFollow;-805;0;0;;;;;;;;;;;;;;;;;;;6;1;00:00:07.4000000;2;69;None;None;False;RcAssistantTakeoff;16;False;False;False;True;True;2;2;0;False;Calibration;0;GpsAtti;-812;-2;-83;-1;-1;0;3.5;32.1032235653453;34.8120658062958;0;0;;;;;;;;;;;;;;;;;;;;;;;;;;;;;
7.496;;;;;;;;;;;;;;;;;;;;;;;;10/22/2015 9:08:41 AM;2.545532;1;0;0;1445504921693;;;;;;;;;;;;;;;;;;;;;;;;;;;;6;1;00:00:07.5000000;2;69;None;None;False;RcAssistantTakeoff;16;False;False;False;True;True;2;2;0;False;Calibration;0;GpsAtti;-815;0;-84;0;-1;0;3.5;32.1032234231952;34.8120659007647;0;0;0;0;False;False;1024;1024;1239;1024;1024;;;;;;;;;;;;;;;;;;;;
7.592;;;;;;;;;;;;;;;;;;;;;;;;10/22/2015 9:08:41 AM;2.557495;1;0;0;1445504921789;;;;0;0;YawFollow;-806;0;0;;;;;;;;;;;;;;;;;;;6;1;00:00:07.6000000;2;69;None;None;False;RcAssistantTakeoff;16;False;False;False;True;True;2;2;0;False;Calibration;0;GpsAtti;-817;1;-83;0;-1;0;3.5;32.1032234885662;34.8120657999381;0;0;0;0;False;False;1024;1024;1024;1024;1024;;;;;;;;;;;;;;;;;;;;
7.696;;;;;;;;;;;;;;;;;;;;;;;;10/22/2015 9:08:41 AM;2.574712;1;0;0;1445504921893;;;;;;;;;;;;;;;;;;;;;;;;;;;;6;1;00:00:07.7000000;2;69;None;None;False;RcAssistantTakeoff;16;False;False;False;True;True;2;2;0;False;Calibration;0;GpsAtti;-819;3;-79;0;-1;0;3.5;32.1032234318379;34.8120656301355;0;0;;;;;;;;;;;;;;;;;;;;;;;;;;;;;
7.792;;;;;;;;;;;;;;;;;;;;;;;;10/22/2015 9:08:41 AM;2.596156;1;0;0;1445504921989;;;;;;;;;;;;;;;;;;;;;;;;;;;;6;1;00:00:07.8000000;2;69;None;None;False;RcAssistantTakeoff;16;False;False;False;True;True;2;2;0;False;Calibration;0;GpsAtti;-819;4;-75;-1;-1;0;3.5;32.1032234180287;34.8120658567584;0;0;;;;;;;;;;;;;;;;;;;;;;;;;;;;;
7.994;;;;;;;;;;;;;;;;;;;;;;;;10/22/2015 9:08:42 AM;2.611236;1;0;0;1445504922191;;;;0;0;YawFollow;-807;0;0;;;;;;;;;;;;;;;;;;;6;1;00:00:07.9000000;2;69;None;None;False;RcAssistantTakeoff;16;False;False;False;True;True;2;2;0;False;Calibration;0;GpsAtti;-819;0;-72;-1;-1;0;3.5;32.1032234844675;34.8120657173561;0;0;;;;;;;;;;;;;;;;;;;;;;;;;;;;;
8.001;;;;;;;;;;;;;;;;;;;;;;;;10/22/2015 9:08:42 AM;2.63336;1;0;0;1445504922198;;;;;;;;;;;;;;;;;;;;;;;;;;;;6;1;00:00:08;2;69;None;None;False;RcAssistantTakeoff;16;False;False;False;True;True;2;2;0;False;Calibration;0;GpsAtti;-819;-3;-75;0;-1;0;3.5;32.1032234577956;34.8120654850505;0;0;0;0;False;False;1024;1024;1371;1024;1024;;;;;;;;;;;;;;;;;;;;
8.098;0;0;Normal;32.11;7/1/2015 12:00:00 AM;456;-18409;-2147483648;15;100;4382;2629;14.987;60;;;;;;;;;;10/22/2015 9:08:42 AM;2.652928;2;0;0;1445504922295;;;;;;;;;;16.01854;32.1032239882616;34.8120657416975;30;False;False;False;False;True;False;False;False;False;CourseLock;0;1;0;1;6;1;00:00:08.1000000;2;69;None;None;False;RcAssistantTakeoff;16;False;False;False;True;True;2;2;0;False;Calibration;0;GpsAtti;-820;-10;-72;0;-2;0;3.5;32.1032235051281;34.8120656847723;0;0;0;0;False;False;1024;1024;1382;1024;1024;;;;;;;60;14.958;0;NonGohome;None;2.740532;0;10;16;0;21;0;;
8.351;;;;;;;;;;;;;;;;;;;;;;;;10/22/2015 9:08:42 AM;2.672585;1;0;0;1445504922548;;;;;;;;;;;;;;;;;;;;;;;;;;;;6;1;00:00:08.2000000;2;69;None;None;False;RcAssistantTakeoff;16;False;False;False;True;True;2;2;0;False;Calibration;0;GpsAtti;-819;-12;-69;0;-1;0;3.5;32.1032236580872;34.8120655794979;0;0;0;0;False;False;1024;1024;1024;1024;1024;;;;;;;;;;;;;;;;;;;;
8.37;;;;;;;;;;;;;;;;;;;;;;;;10/22/2015 9:08:42 AM;2.685216;2;0;0;1445504922567;;;;0;0;YawFollow;-808;0;0;;;;;;;;;;;;;;;;;;;6;1;00:00:08.3000000;2;69;None;None;False;RcAssistantTakeoff;16;False;False;False;True;True;2;2;0;False;Calibration;0;GpsAtti;-817;-9;-64;-1;-2;0;3.5;32.1032236977873;34.8120654540714;0;0;;;;;;;;;;;;;;;;;;;;;;;;;;;;;
8.393;;;;;;;;;;;;;;;;;;;;;;;;10/22/2015 9:08:42 AM;2.69315;1;0;0;1445504922590;;;;;;;;;;;;;;;;;;;;;;;;;;;;6;1;00:00:08.4000000;3;69;None;None;False;RcAssistantTakeoff;16;False;False;False;True;True;2;2;0;False;Calibration;0;GpsAtti;-814;-9;-49;-5;-1;0;3.5;32.1032237044732;34.812065537771;0;0;;;;;;;;;;;;;;;;;;;;;;;;;;;;;
8.594;;;;;;;;;;;;;;;;;;;;;;;;10/22/2015 9:08:42 AM;2.716409;1;0;0;1445504922791;;;;;;;;;;;;;;;;;;;;;;;;;;;;6;1;00:00:08.6000000;3;69;None;None;False;RcAssistantTakeoff;16;False;False;False;True;True;2;2;0;False;Calibration;0;GpsAtti;-813;-2;-63;-2;-1;0;3.6;32.1032237575733;34.8120652993712;0;0;;;;;;;;;;;;;;;;;;;;;;;;;;;;;
8.796;;;;;;;;;;;;;;;;;;;;;;;;10/22/2015 9:08:42 AM;2.741725;0;0;0;1445504922993;;;;;;;;;;;;;;;;;;;;;;;;;;;;6;1;00:00:08.8000000;3;69;None;None;False;RcAssistantTakeoff;16;False;False;False;True;True;2;2;0;False;Calibration;0;GpsAtti;-815;-1;-70;0;0;0;3.5;32.103223849444;34.8120655449126;0;0;0;0;False;False;992;1024;1024;1024;1024;;;;;;;;;;;;;;;;;;;;
8.896;;;;;;;;;;;;;;;;;;;;;;;;10/22/2015 9:08:43 AM;2.744615;0;0;0;1445504923093;;;;;;;;;;;;;;;;;;;;;;;;;;;;6;1;00:00:08.9000000;2;69;None;None;False;RcAssistantTakeoff;16;False;False;False;True;True;2;2;0;False;Calibration;0;GpsAtti;-817;-1;-73;0;0;0;3.5;32.1032238233905;34.8120655459157;0;0;0;0;False;False;653;1024;1041;1024;1024;;;;;;;;;;;;;;;;;;;;
9.006;;;;;;;;;;;;;;;;;;;;;;;;10/22/2015 9:08:43 AM;2.769984;0;0;0;1445504923203;;;;;;;;;;;;;;;;;;;;;;;;;;;;6;1;00:00:09;2;69;None;None;False;RcAssistantTakeoff;16;False;False;False;True;True;2;2;0;False;Calibration;0;GpsAtti;-817;-2;-77;0;0;0;3.5;32.1032238245996;34.8120658146901;0;0;0;0;False;False;1024;1024;1221;1024;1024;;;;;;;;;;;;;;;;;;;;
9.099;0;0;Normal;32.11;7/1/2015 12:00:00 AM;456;-17427;-2147483648;15;100;4382;2629;14.887;60;;;;;;;;;;10/22/2015 9:08:43 AM;2.777386;0;0;0;1445504923296;;;;0;0;YawFollow;-808;0;-6;;;;;;;;;;;;;;;;;;;6;1;00:00:09.1000000;2;69;None;None;False;RcAssistantTakeoff;16;False;False;False;True;True;2;2;0;False;Calibration;0;GpsAtti;-819;-3;-80;0;0;0;3.5;32.1032238175156;34.8120657367066;0;0;0;0;False;False;1024;1024;1598;1024;1024;;;;;;;60;14.98;0;NonGohome;None;2.924726;0;10;16;0;21;0;;
9.196;;;;;;;;;;;;;;;;;;;;;;;;10/22/2015 9:08:43 AM;2.788276;0;0;0;1445504923393;;;;0;0;YawFollow;-808;0;-7;;;;;;;;;;;;;;;;;;;6;1;00:00:09.2000000;2;69;None;None;False;RcAssistantTakeoff;16;False;False;False;True;True;2;2;0;False;Calibration;0;GpsAtti;-820;-4;-83;0;0;0;3.5;32.1032239156078;34.8120657311914;0;0;0;0;False;False;1024;1024;1552;1024;1024;;;;;;;;;;;;;;;;;;;;
9.3;;;;;;;;;;;;;;;;;;;;;;;;10/22/2015 9:08:43 AM;2.796602;1;0;0;1445504923497;;;;0;0;YawFollow;-809;0;-7;;;;;;;;;;;;;;;;;;;6;1;00:00:09.3000000;2;69;None;None;False;RcAssistantTakeoff;16;False;False;False;True;True;2;2;0;False;Calibration;0;GpsAtti;-824;-9;-83;-1;-1;0;3.5;32.1032239374102;34.8120658156032;0;0;0;0;False;False;1024;1024;1088;1024;1024;;;;;;;;;;;;;;;;;;;;
9.394;;;;;;;;;;;;;;;;;;;;;;;;10/22/2015 9:08:43 AM;2.806808;1;0;0;1445504923591;;;;;;;;;;;;;;;;;;;;;;;;;;;;6;1;00:00:09.4000000;2;69;None;None;False;RcAssistantTakeoff;16;False;False;False;True;True;2;2;0;False;Calibration;0;GpsAtti;-828;-5;-77;-4;-1;0;3.5;32.1032239975188;34.8120657337135;0;0;0;0;False;False;1024;1024;1023;1024;1024;;;;;;;;;;;;;;;;;;;;
9.495;;;;;;;;;;;;;;;;;;;;;;;;10/22/2015 9:08:43 AM;2.832189;3;0;0;1445504923692;;;;0;0;YawFollow;-810;0;-7;;;;;;;;;;;;;;;;;;;6;1;00:00:09.5000000;3;69;None;None;False;RcAssistantTakeoff;16;False;False;False;True;True;2;2;0;False;Calibration;0;GpsAtti;-833;0;-79;-8;-3;0;3.6;32.1032239381617;34.8120654739974;0;0;0;0;False;False;1024;1024;1024;1024;1024;;;;;;;;;;;;;;;;;;;;
9.595;;;;;;;;;;;;;;;;;;;;;;;;10/22/2015 9:08:43 AM;2.837569;3;0;0;1445504923792;;;;0;0;YawFollow;-811;0;-7;;;;;;;;;;;;;;;;;;;6;1;00:00:09.6000000;3;69;None;None;False;RcAssistantTakeoff;16;False;False;False;True;True;2;2;0;False;Calibration;0;GpsAtti;-840;2;-78;-10;-3;0;3.7;32.103223939132;34.8120654170039;0;0;;;;;;;;;;;;;;;;;;;;;;;;;;;;;
9.695;;;;;;;;;;;;;;;;;;;;;;;;10/22/2015 9:08:43 AM;2.863164;2;0;0;1445504923892;;;;0;0;YawFollow;-812;0;-7;;;;;;;;;;;;;;;;;;;6;1;00:00:09.7000000;4;69;None;None;False;RcAssistantTakeoff;16;False;False;False;True;True;2;2;0;False;Calibration;0;GpsAtti;-838;11;-59;-8;-2;0;3.7;32.1032238941704;34.812065151022;0;0;;;;;;;;;;;;;;;;;;;;;;;;;;;;;
9.795;;;;;;;;;;;;;;;;;;;;;;;;10/22/2015 9:08:43 AM;2.884259;1;0;0;1445504923992;;;;0;0;YawFollow;-813;0;-7;;;;;;;;;;;;;;;;;;;6;1;00:00:09.8000000;2;69;None;None;False;RcAssistantTakeoff;16;False;False;False;True;True;2;2;0;False;Calibration;0;GpsAtti;-829;25;-50;-5;-1;0;3.8;32.1032239930641;34.812064960091;0;0;;;;;;;;;;;;;;;;;;;;;;;;;;;;;
9.894;;;;;;;;;;;;;;;;;;;;;;;;10/22/2015 9:08:44 AM;2.897364;0;0;0;1445504924091;;;;;;;;;;;;;;;;;;;;;;;;;;;;6;1;00:00:09.9000000;3;69;None;None;False;RcAssistantTakeoff;16;False;False;False;True;True;2;2;0;False;Calibration;0;GpsAtti;-818;32;-44;-3;0;0;3.9;32.1032239931232;34.8120648212446;0;0;;;;;;;;;;;;;;;;;;;;;;;;;;;;;
9.992;;;;;;;;;;;;;;;;;;;;;;;;10/22/2015 9:08:44 AM;2.952888;0;0;0;1445504924189;;;;;;;;;;;;;;;;;;;;;;;;;;;;6;1;00:00:10;4;69;None;None;False;RcAssistantTakeoff;16;False;False;False;True;True;2;2;0;False;Calibration;0;GpsAtti;-810;26;-44;-2;0;0;3.9;32.1032243608616;34.8120652204997;0;0;0;0;False;False;1024;1024;1024;1024;948;;;;;;;;;;;;;;;;;;;;
10.104;0;0;Normal;32.11;7/1/2015 12:00:00 AM;456;-20228;-2147483648;15;100;4382;2629;14.645;60;;;;;;;;;;10/22/2015 9:08:44 AM;2.968567;0;0;0;1445504924301;True;StretchComplete;Normal;;;;;;;;;;;;;;;;;;;;;;;;;6;1;00:00:10.1000000;5;69;None;None;False;RcAssistantTakeoff;16;False;False;False;True;True;2;2;0;False;Calibration;0;GpsAtti;-806;9;-56;-1;0;0;3.9;32.1032244292352;34.8120653658998;0;0;0;0;False;False;1024;1024;1024;1024;988;;;;;;;;;;;;;;;;;;;;
10.196;;;;;;;;;;;;;;;;;;;;;;;;10/22/2015 9:08:44 AM;2.989938;1;0;0;1445504924393;;;;;;;;;;;;;;;;;;;;;;;;;;;;6;1;00:00:10.2000000;2;69;None;None;False;RcAssistantTakeoff;16;False;False;False;True;True;2;2;0;False;Calibration;0;GpsAtti;-804;-5;-68;-4;1;0;3.9;32.1032245804182;34.8120655063424;0;0;0;0;False;False;1024;1024;1024;1024;1024;;;;;;;;;;;;;;;;;;;;
10.301;;;;;;;;;;;;;;;;;;;;;;;;10/22/2015 9:08:44 AM;3.041944;1;0;0;1445504924498;;;;;;;;;;;;;;;;;;;;;;;;;;;;6;1;00:00:10.3000000;3;69;None;None;False;RcAssistantTakeoff;16;False;False;False;True;True;2;2;0;False;Calibration;0;GpsAtti;-804;-10;-64;-3;1;0;4;32.103224673835;34.8120660463021;0;0;0;0;False;False;1024;1024;1024;1024;1050;;;;;;;;;;;;;;;;;;;;
10.394;;;;;;;;;;;;;;;;;;;;;;;;10/22/2015 9:08:44 AM;3.073303;1;0;0;1445504924591;;;;;;;;;;;;;;;;;;;;;;;;;;;;6;1;00:00:10.4000000;2;69;None;None;False;RcAssistantTakeoff;16;False;False;False;True;True;2;2;0;False;Calibration;0;GpsAtti;-803;-8;-58;-2;1;0;3.9;32.1032247701112;34.8120663586967;0;0;0;0;False;False;1024;1024;1024;1024;1193;;;;;;;;;;;;;;;;;;;;
10.494;;;;;;;;;;;;;;;;;;;;;;;;10/22/2015 9:08:44 AM;3.093444;2;0;0;1445504924691;;;;0;0;YawFollow;-812;0;-7;;;;;;;;;;;;;;;;;;;6;1;00:00:10.5000000;2;69;None;None;False;RcAssistantTakeoff;16;False;False;False;True;True;2;2;0;False;Calibration;0;GpsAtti;-805;-5;-56;-1;2;0;4;32.1032248035785;34.8120665684394;0;0;0;0;False;False;1024;1024;1024;1024;1256;;;;;;;;;;;;;;;;;;;;
10.595;;;;;;;;;;;;;;;;;;;;;;;;10/22/2015 9:08:44 AM;3.149081;2;0;0;1445504924792;;;;;;;;;;;;;;;;;;;;;;;;;;;;6;1;00:00:10.6000000;2;69;None;None;False;RcAssistantTakeoff;16;False;False;False;True;True;2;2;0;False;Calibration;0;GpsAtti;-806;-2;-56;0;2;0;4;32.1032248897192;34.8120671491598;0;0;0;0;False;False;1024;1024;1024;1024;1260;;;;;;;;;;;;;;;;;;;;
10.697;;;;;;;;;;;;;;;;;;;;;;;;10/22/2015 9:08:44 AM;3.176679;2;0;0;1445504924894;;;;;;;;;;;;;;;;;;;;;;;;;;;;6;1;00:00:10.7000000;5;69;None;None;False;RcAssistantTakeoff;16;False;False;False;True;True;2;2;0;False;Calibration;0;GpsAtti;-809;10;-56;0;2;0;4;32.103224921169;34.8120674392227;0;0;0;0;False;False;1024;1024;1024;1024;1189;;;;;;;;;;;;;;;;;;;;
10.794;;;;;;;;;;;;;;;"	";"04DJA26046";"";7/29/2015 10:50:00 AM;"Phantom 3";"03Z0172712";"2.3.0";1;4;10/22/2015 9:08:44 AM;3.228398;3;0;0;1445504924991;;;;;;;;;;;;;;;;;;;;;;;;;;;;6;1;00:00:10.8000000;5;69;None;None;False;RcAssistantTakeoff;16;False;False;False;True;True;2;2;0;False;Calibration;0;GpsAtti;-812;36;-58;0;3;0;4;32.1032249436443;34.812067986549;0;0;0;0;False;False;1024;1024;1024;1052;1024;;;;;;;;;;;;;;;;;;;;
10.898;;;;;;;;;;;;;;;;;;;;;;;;10/22/2015 9:08:45 AM;3.278092;3.162278;0;0;1445504925095;;;;;;;;;;;;;;;;;;;;;;;;;;;;6;1;00:00:10.9000000;2;69;None;None;False;RcAssistantTakeoff;16;False;False;False;True;True;2;2;0;False;Calibration;0;GpsAtti;-815;53;-63;0;3;1;4;32.1032250983827;34.8120684806738;0;0;0;0;False;False;1024;1024;1029;1179;1024;;;;;;;;;;;;;;;;;;;;
10.994;;;;;;;;;;;;;;;;;;;;;;;;10/22/2015 9:08:45 AM;3.34249;3.162278;0;0;1445504925191;;;;;;;;;;;;;;;;;;;;;;;;;;;;6;1;00:00:11;2;69;None;None;False;RcAssistantTakeoff;16;False;False;False;True;True;2;2;0;False;Calibration;0;GpsAtti;-815;48;-67;0;3;1;4;32.1032252341259;34.812069144071;0;0;0;0;False;False;1024;1024;1088;1356;1024;;;;;;;;;;;;;;;;;;;;
11.099;0;0;Normal;32.11;7/1/2015 12:00:00 AM;456;-4758;-2147483648;15;100;4382;2629;14.653;60;;;;;;;;;;10/22/2015 9:08:45 AM;3.387798;3.605551;0;0;1445504925296;;;;;;;;;;;;;;;;;;;;;;;;;;;;6;1;00:00:11.1000000;2;69;None;None;False;RcAssistantTakeoff;16;False;False;False;True;True;2;2;0;False;Calibration;0;GpsAtti;-814;21;-69;0;3;2;4;32.1032254229057;34.8120695698062;0;0;0;0;False;False;1024;1024;1061;1385;1024;;;;;;;60;14.966;0;NonGohome;None;3.101893;0;10;16;0;20;0;;
11.206;;;;;;;;;;;;;;;;;;;;;;;;10/22/2015 9:08:45 AM;3.478688;3.605551;0;0;1445504925403;;;;;;;;;;;;;;;;;;;;;;;;;;;;6;1;00:00:11.2000000;2;69;None;None;False;RcAssistantTakeoff;16;False;False;False;True;True;2;2;0;False;Calibration;0;GpsAtti;-816;6;-84;0;3;2;3.9;32.1032257337554;34.8120704608429;0;0;0;0;False;False;1024;1024;1047;1357;1024;;;;;;;;;;;;;;;;;;;;
11.292;;;;;;;;;;;;;;;;;;;;;;;;10/22/2015 9:08:45 AM;3.522435;2.828427;0;0;1445504925489;;;;;;;;;;;;;;;;;;;;;;;;;;;;6;1;00:00:11.3000000;2;69;None;None;False;RcAssistantTakeoff;16;False;False;False;True;True;2;2;0;False;Calibration;0;GpsAtti;-814;0;-130;0;2;2;3.9;32.1032259816195;34.8120708214417;0;0;0;0;False;False;1024;1024;1035;1346;1024;;;;;;;;;;;;;;;;;;;;
11.398;;;;;;;;;;;;;;;;;;;;;;;;10/22/2015 9:08:45 AM;3.592381;2.828427;0;0;1445504925595;;;;;;;;;;;;;;;;;;;;;;;;;;;;6;1;00:00:11.4000000;2;69;None;None;False;RcAssistantTakeoff;16;False;False;False;True;True;2;2;0;False;Calibration;0;GpsAtti;-813;-4;-172;0;2;2;3.9;32.1032262115877;34.8120715115085;0;0;0;0;False;False;1024;1024;1024;1335;1024;;;;;;;;;;;;;;;;;;;;
11.494;;;;;;;;;;;;;;;;;;;;;;;;10/22/2015 9:08:45 AM;3.641333;2;0;0;1445504925691;;;;;;;;;;;;;;;;;;;;;;;;;;;;6;1;00:00:11.5000000;2;69;None;None;False;RcAssistantTakeoff;16;False;False;False;True;True;2;2;0;False;Calibration;0;GpsAtti;-813;-10;-175;0;0;2;3.9;32.1032264607026;34.8120719396922;0;0;0;0;False;False;1024;1024;1024;1320;1024;;;;;;;;;;;;;;;;;;;;
11.598;;;;;;;;;;;;;;;;;;;;;;;;10/22/2015 9:08:45 AM;3.676849;2;0;0;1445504925795;;;;;;;;;;;;;;;;;;;;;;;;;;;;6;1;00:00:11.6000000;2;69;None;None;False;RcAssistantTakeoff;16;False;False;False;True;True;2;2;0;False;Calibration;0;GpsAtti;-813;-13;-176;0;0;2;3.9;32.1032266650812;34.8120722294104;0;0;0;0;False;False;1024;1024;1032;1319;1024;;;;;;;;;;;;;;;;;;;;
11.698;;;;;;;;;;;;;;;;;;;;;;;;10/22/2015 9:08:45 AM;3.704314;2.828427;0;0;1445504925895;;;;;;;;;;;;;;;;;;;;;;;;;;;;6;1;00:00:11.7000000;2;69;None;None;False;RcAssistantTakeoff;16;False;False;False;True;True;2;2;0;False;Calibration;0;GpsAtti;-817;-13;-172;0;-2;2;3.9;32.1032268889167;34.8120721048208;0;0;0;0;False;False;1024;1024;1102;1296;1024;;;;;;;;;;;;;;;;;;;;
11.791;;;;;;;;;;;;;;;;;;;;;;;;10/22/2015 9:08:45 AM;3.766981;2.828427;0;0;1445504925988;;;;;;;;;;;;;;;;;;;;;;;;;;;;6;1;00:00:11.8000000;2;69;None;None;False;RcAssistantTakeoff;16;False;False;False;True;True;2;2;0;False;Calibration;0;GpsAtti;-819;-12;-162;0;-2;2;3.9;32.1032272667593;34.8120725985556;0;0;0;0;False;False;1024;1024;1215;1269;1024;;;;;;;;;;;;;;;;;;;;
11.893;;;;;;;;;;;;;;;;;;;;;;;;10/22/2015 9:08:46 AM;3.812285;4.472136;0;0;1445504926090;;;;;;;;;;;;;;;;;;;;;;;;;;;;6;1;00:00:11.9000000;2;69;None;None;False;RcAssistantTakeoff;16;False;False;True;True;True;2;2;0;False;Calibration;0;GpsAtti;-819;-8;-154;0;-4;2;3.9;32.1032274978548;34.812072202731;0;0;0;0;False;False;1024;1024;1296;1236;1024;;;;;;;;;;;;;;;;;;;;
12.012;;;;;;;;;;;;;;;;;;;;;;;;10/22/2015 9:08:46 AM;3.857764;4.472136;0;0;1445504926209;;;;;;;;;;;;;;;;;;;;;;;;;;;;6;1;00:00:12;2;69;None;None;False;RcAssistantTakeoff;16;False;False;True;True;True;2;2;0;False;Calibration;0;GpsAtti;-819;-1;-142;0;-4;2;3.9;32.1032278107017;34.8120718911424;0;0;0;0;False;False;1024;1024;1314;1187;1024;;;;;;;;;;;;;;;;;;;;
12.095;0;0;Normal;32.11;7/1/2015 12:00:00 AM;456;-14429;-2147483648;15;100;4382;2629;14.941;60;;;;;;;;;;10/22/2015 9:08:46 AM;3.899888;5.385165;0;0;1445504926292;True;Folding;Protect;0;0;YawFollow;-813;0;-7;;;;;;;;;;;;;;;;;;;6;1;00:00:12.1000000;2;69;None;None;False;RcAssistantTakeoff;16;False;False;True;True;True;2;2;0;False;Calibration;0;GpsAtti;-819;5;-116;-2;-5;2;4;32.1032281607974;34.8120720643562;0;0;0;0;False;False;1024;1024;1037;1148;1024;;;;;;;60;14.796;0;NonGohome;None;3.228857;0;10;16;0;20;0;;
12.197;;;;;;;;;;;;;;;;;;;;;;;;10/22/2015 9:08:46 AM;3.959523;5;0;0;1445504926394;;;;;;;;;;;;;;;;;;;;;;;;;;;;6;1;00:00:12.2000000;3;69;None;None;False;RcAssistantTakeoff;16;False;False;True;True;True;2;2;0;False;Calibration;0;GpsAtti;-818;2;-92;-5;-4;3;4;32.1032285463583;34.8120716238701;0;0;0;0;False;False;1024;1024;1024;1108;1024;;;;;;;;;;;;;;;;;;;;
12.297;;;;;;;;;;;;;;;;;;;;;;;;10/22/2015 9:08:46 AM;4.018574;5.385165;0;0;1445504926494;;;;;;;;;;;;;;;;;;;;;;;;;;;;6;1;00:00:12.3000000;3;69;None;None;False;RcAssistantTakeoff;16;False;False;True;True;True;2;2;0;False;Calibration;0;GpsAtti;-818;-1;-80;-8;-5;2;4.1;32.1032288181372;34.8120710858439;0;0;0;0;False;False;1024;1024;1048;1095;1024;;;;;;;;;;;;;;;;;;;;
12.397;;;;;;;;;;;;;;;;;;;;;;;;10/22/2015 9:08:46 AM;4.0897;5;0;0;1445504926594;;;;;;;;;;;;;;;;;;;;;;;;;;;;6;1;00:00:12.4000000;3;69;None;None;False;RcAssistantTakeoff;16;False;False;True;True;True;2;2;0;False;Calibration;0;GpsAtti;-817;0;-79;-6;-4;3;4.1;32.1032294423549;34.8120712591998;0;0;0;0;False;False;1024;1024;1292;1095;1024;;;;;;;;;;;;;;;;;;;;
12.496;;;;;;;;;;;;;;;;;;;;;;;;10/22/2015 9:08:46 AM;4.146839;5;0;0;1445504926693;;;;;;;;;;;;;;;;;;;;;;;;;;;;6;1;00:00:12.5000000;3;69;None;None;False;RcAssistantTakeoff;16;False;False;True;True;True;2;2;0;False;Calibration;0;GpsAtti;-814;2;-75;-4;-4;3;4.2;32.1032297528811;34.8120707760813;0;0;0;0;False;False;1024;1024;1380;1108;1024;;;;;;;;;;;;;;;;;;;;
12.593;;;;;;;;;;;;;;;;;;;;;;;;10/22/2015 9:08:46 AM;4.230238;4.24264;0;0;1445504926790;;;;;;;;;;;;;;;;;;;;;;;;;;;;6;1;00:00:12.6000000;3;69;None;None;False;RcAssistantTakeoff;16;False;False;True;True;True;2;2;0;False;Calibration;0;GpsAtti;-814;0;-66;-2;-3;3;4.2;32.1032304110675;34.8120703485236;0;0;0;0;False;False;1024;1024;1355;1112;1024;;;;;;;;;;;;;;;;;;;;
12.696;;;;;;;;;;;;;;;;;;;;;;;;10/22/2015 9:08:46 AM;4.294793;4.24264;0;0;1445504926893;;;;;;;;;;;;;;;;;;;;;;;;;;;;6;1;00:00:12.7000000;2;69;None;None;False;RcAssistantTakeoff;16;False;False;True;True;True;2;2;0;False;Calibration;0;GpsAtti;-815;-7;-53;-3;-3;3;4.2;32.1032309918707;34.8120703952;0;0;0;0;False;False;1024;1024;1351;1108;1024;;;;;;;;;;;;;;;;;;;;
12.795;;;;;;;;;;;;;;;;;;;;;;;;10/22/2015 9:08:46 AM;4.347088;3.605551;0;0;1445504926992;;;;;;;;;;;;;;;;;;;;;;;;;;;;6;1;00:00:12.8000000;3;69;None;None;False;RcAssistantTakeoff;16;False;False;True;True;True;2;2;0;False;Calibration;0;GpsAtti;-816;-14;-40;-6;-2;3;4.3;32.1032314541203;34.8120702854173;0;0;0;0;False;False;1024;1024;1270;1093;1024;;;;;;;;;;;;;;;;;;;;
12.895;;;;;;;;;;;;;;;;;;;;;;;;10/22/2015 9:08:47 AM;4.38071;2.236068;0;0;1445504927092;;;;;;;;;;;;;;;;;;;;;;;;;;;;6;1;00:00:12.9000000;3;69;None;None;False;RcAssistantTakeoff;16;False;False;True;True;True;2;2;0;False;Calibration;0;GpsAtti;-817;-19;-41;-10;-1;2;4.4;32.1032316908227;34.812070062802;0;0;0;0;False;False;1024;1024;1024;1024;1024;;;;;;;;;;;;;;;;;;;;
12.995;;;;;;;;;;;;;;;;;;;;;;;;10/22/2015 9:08:47 AM;4.421733;1.414214;0;0;1445504927192;;;;;;;;;;;;;;;;;;;;;;;;;;;;6;1;00:00:13;3;69;None;None;False;RcAssistantTakeoff;16;False;False;True;True;True;2;2;0;False;Calibration;0;GpsAtti;-816;-17;-53;-12;-1;1;4.5;32.1032320318387;34.8120698943046;0;0;0;0;False;False;1024;1024;1024;1069;1024;;;;;;;;;;;;;;;;;;;;
13.617;;;;;;;;;;;;;;;;;;;;;;;;10/22/2015 9:08:47 AM;4.662247;2.236068;0;0;1445504927814;;;;;;;;;;;;;;;;;;;;;;;;;;;;6;1;00:00:13.6000000;1;69;None;None;False;RcAssistantTakeoff;16;False;False;True;True;True;2;2;0;False;Calibration;0;GpsAtti;-810;2;-97;-1;1;2;4.8;32.1032339269709;34.8120711337168;0;0;0;0;False;False;1024;1024;1024;1261;1024;;;;;;;;;;;;;;;;;;;;
13.698;;;;;;;;;;;;;;;;;;;;;;;;10/22/2015 9:08:47 AM;4.726396;2;0;0;1445504927895;;;;;;;;;;;;;;;;;;;;;;;;;;;;6;1;00:00:13.7000000;1;69;None;None;False;RcAssistantTakeoff;16;False;False;True;True;True;2;2;0;False;Calibration;0;GpsAtti;-811;1;-102;0;0;2;4.8;32.1032343325668;34.8120716183409;0;0;0;0;False;False;1024;1024;1024;1242;1024;;;;;;;;;;;;;;;;;;;;
13.798;;;;;;;;;;;;;;;;;;;;;;;;10/22/2015 9:08:47 AM;4.74999;2;0;0;1445504927995;;;;;;;;;;;;;;;;;;;;;;;;;;;;6;1;00:00:13.8000000;1;69;None;None;False;RcAssistantTakeoff;16;False;False;True;True;True;2;2;0;False;Calibration;0;GpsAtti;-813;3;-101;0;0;2;4.8;32.103234501344;34.8120717705737;0;0;0;0;False;False;1024;1024;1024;1254;1024;;;;;;;;;;;;;;;;;;;;
13.895;;;;;;;;;;;;;;;;;;;;;;;;10/22/2015 9:08:48 AM;4.777828;2;0;0;1445504928092;;;;;;;;;;;;;;;;;;;;;;;;;;;;6;1;00:00:13.9000000;0;69;None;None;False;RcAssistantTakeoff;16;False;False;False;True;True;2;2;0;False;Calibration;0;GpsAtti;-816;1;-108;-1;0;2;4.8;32.1032347509582;34.8120718020006;0;0;0;0;False;False;1024;1024;1024;1300;1024;;;;;;;;;;;;;;;;;;;;
14.016;;;;;;;;;;;;;;;;;;;;;;;;10/22/2015 9:08:48 AM;4.840819;2;0;0;1445504928213;;;;;;;;;;;;;;;;;;;;;;;;;;;;6;1;00:00:14;3;69;None;None;False;RcAssistantTakeoff;16;False;False;False;True;True;2;2;0;False;Calibration;0;GpsAtti;-819;-2;-113;0;0;2;4.8;32.1032351152204;34.812072314113;0;0;;;;;;;;;;;;;;;;;;;;;;;;;;;;;
14.098;0;0;Normal;32.11;7/1/2015 12:00:00 AM;456;-18761;-2147483648;15;100;4382;2629;14.863;60;;;;;;;;;;10/22/2015 9:08:48 AM;4.870244;2;0;0;1445504928295;True;Folding;Normal;;;;;;;;;;;;;;;;;;;;;;;;;6;1;00:00:14.1000000;2;69;None;None;False;RcAssistantTakeoff;16;False;False;False;True;True;2;2;0;False;Calibration;0;GpsAtti;-823;-5;-116;0;0;2;4.8;32.1032353773512;34.812072265682;0;0;0;0;False;False;1024;1024;1024;1372;1024;;;;;;;60;14.945;0;NonGohome;None;3.433877;0;10;16;0;20;0;;
14.197;;;;;;;;;;;;;;;;;;;;;;;;10/22/2015 9:08:48 AM;4.906232;2;0;0;1445504928394;;;;;;;;;;;;;;;;;;;;;;;;;;;;6;1;00:00:14.2000000;2;69;None;None;False;RcAssistantTakeoff;16;False;False;False;True;True;2;2;0;False;Calibration;0;GpsAtti;-822;-5;-122;0;0;2;4.8;32.1032356913838;34.8120723619362;0;0;0;0;False;False;1024;1024;1024;1385;1024;;;;;;;;;;;;;;;;;;;;
14.295;;;;;;;;;;;;;;;;;;;;;;;;10/22/2015 9:08:48 AM;4.944845;2.236068;0;0;1445504928492;;;;;;;;;;;;;;;;;;;;;;;;;;;;6;1;00:00:14.3000000;2;69;None;None;False;RcAssistantTakeoff;16;False;False;False;True;True;2;2;0;False;Calibration;0;GpsAtti;-818;-5;-136;0;-1;2;4.8;32.1032360250321;34.812072478993;0;0;0;0;False;False;1024;1024;1024;1381;1024;;;;;;;;;;;;;;;;;;;;
14.397;;;;;;;;;;;;;;;;;;;;;;;;10/22/2015 9:08:48 AM;4.978885;3.605551;0;0;1445504928594;;;;;;;;;;;;;;;;;;;;;;;;;;;;6;1;00:00:14.4000000;3;69;None;None;False;RcAssistantTakeoff;16;False;False;False;True;True;2;2;0;False;Calibration;0;GpsAtti;-815;-8;-147;0;-2;3;4.8;32.103236322118;34.812072569823;0;0;0;0;False;False;1024;1024;1024;1373;1024;;;;;;;;;;;;;;;;;;;;
14.495;;;;;;;;;;;;;;;;;;;;;;;;10/22/2015 9:08:48 AM;5.020359;4.24264;0;0;1445504928692;;;;;;;;;;;;;;;;;;;;;;;;;;;;6;1;00:00:14.5000000;2;69;None;None;False;RcAssistantTakeoff;16;False;False;False;True;True;2;2;0;False;Calibration;0;GpsAtti;-813;-6;-152;0;-3;3;4.8;32.1032366054399;34.8120722829763;0;0;0;0;False;False;1024;1024;1024;1362;1024;;;;;;;;;;;;;;;;;;;;
14.602;;;;;;;;;;;;;;;;;;;;;;;;10/22/2015 9:08:48 AM;5.075294;4.24264;0;0;1445504928799;;;;;;;;;;;;;;;;;;;;;;;;;;;;6;1;00:00:14.6000000;2;69;None;None;False;RcAssistantTakeoff;16;False;False;False;True;True;2;2;0;False;Calibration;0;GpsAtti;-813;-7;-152;0;-3;3;4.8;32.1032370874758;34.8120724173357;0;0;0;0;False;False;1024;1024;1024;1358;1024;;;;;;;;;;;;;;;;;;;;
14.695;;;;;;;;;;;;;;;;;;;;;;;;10/22/2015 9:08:48 AM;5.12887;5;0;0;1445504928892;;;;;;;;;;;;;;;;;;;;;;;;;;;;6;1;00:00:14.7000000;2;69;None;None;False;RcAssistantTakeoff;16;False;False;False;True;True;2;2;0;False;Calibration;0;GpsAtti;-812;-8;-148;0;-4;3;4.8;32.1032373775482;34.8120719633946;0;0;;;;;;;;;;;;;;;;;;;;;;;;;;;;;
14.796;;;;;;;;;;;;;;;;;;;;;;;;10/22/2015 9:08:48 AM;5.176885;5;0;0;1445504928993;;;;;;;;;;;;;;;;;;;;;;;;;;;;6;1;00:00:14.8000000;2;69;None;None;False;RcAssistantTakeoff;16;False;False;False;True;True;2;2;0;False;Calibration;0;GpsAtti;-813;-9;-141;0;-4;3;4.8;32.1032377075623;34.8120716340544;0;0;0;0;False;False;1024;1024;1024;1349;1024;;;;;;;;;;;;;;;;;;;;
14.895;;;;;;;;;;;;;;;;;;;;;;;;10/22/2015 9:08:49 AM;5.228235;5.830952;0;0;1445504929092;;;;;;;;;;;;;;;;;;;;;;;;;;;;6;1;00:00:14.9000000;2;69;None;None;False;RcAssistantTakeoff;16;False;False;False;True;True;2;2;0;False;Calibration;0;GpsAtti;-813;-6;-132;0;-5;3;4.8;32.103238167227;34.8120715681284;0;0;0;0;False;False;1024;1024;1236;1360;1024;;;;;;;;;;;;;;;;;;;;
14.996;;;;;;;;;;;;;;;;;;;;;;;;10/22/2015 9:08:49 AM;5.297705;5.830952;0;0;1445504929193;;;;;;;;;;;;;;;;;;;;;;;;;;;;6;1;00:00:15;2;69;None;None;False;RcAssistantTakeoff;16;False;False;False;True;True;2;2;0;False;Calibration;0;GpsAtti;-812;-5;-127;0;-5;3;4.8;32.1032385870104;34.8120710217638;0;0;0;0;False;False;1024;1024;1259;1350;1024;;;;;;;;;;;;;;;;;;;;
15.096;0;0;Normal;32.11;7/1/2015 12:00:00 AM;456;-18648;-2147483648;15;100;4382;2629;14.871;60;;;;;;;;;;10/22/2015 9:08:49 AM;5.370502;6.708204;0;0;1445504929293;;;;;;;;;;;;;;;;;;;;;;;;;;;;6;1;00:00:15.1000000;2;69;None;None;False;RcAssistantTakeoff;16;False;False;True;True;True;2;2;0;False;Calibration;0;GpsAtti;-812;-3;-129;0;-6;3;4.8;32.1032389278696;34.8120703625828;0;0;0;0;False;False;1024;1024;1263;1349;1024;;;;;;;60;14.89;0;NonGohome;None;3.521531;0;10;16;0;20;0;;
15.198;;;;;;;;;;;;;;;;;;;;;;;;10/22/2015 9:08:49 AM;5.463164;7.211102;0;0;1445504929395;;;;;;;;;;;;;;;;;;;;;;;;;;;;6;1;00:00:15.2000000;2;69;None;None;False;RcAssistantTakeoff;16;False;False;True;True;True;2;2;0;False;Calibration;0;GpsAtti;-816;-4;-126;-1;-6;4;4.8;32.1032397554232;34.8120702264712;0;0;0;0;False;False;1024;1024;1216;1349;1024;;;;;;;;;;;;;;;;;;;;
15.295;;;;;;;;;;;;;;;;;;;;;;;;10/22/2015 9:08:49 AM;5.549217;8.062258;0;0;1445504929492;;;;;;;;;;;;;;;;;;;;;;;;;;;;6;1;00:00:15.3000000;3;69;None;None;False;RcAssistantTakeoff;16;False;False;True;True;True;2;2;0;False;Calibration;0;GpsAtti;-820;-14;-118;-4;-7;4;4.8;32.103240150712;34.8120694418786;0;0;0;0;False;False;1024;1024;1024;1337;1024;;;;;;;;;;;;;;;;;;;;
15.395;;;;;;;;;;;;;;;;;;;;;;;;10/22/2015 9:08:49 AM;5.634461;8.944272;0;0;1445504929592;;;;;;;;;;;;;;;;;;;;;;;;;;;;6;1;00:00:15.4000000;3;69;None;None;False;RcAssistantTakeoff;16;False;False;True;True;True;2;2;0;False;Calibration;0;GpsAtti;-819;-14;-119;-5;-8;4;4.8;32.1032406016712;34.8120687104414;0;0;0;0;False;False;1024;1024;1024;1342;1024;;;;;;;;;;;;;;;;;;;;
15.495;;;;;;;;;;;;;;;;;;;;;;;;10/22/2015 9:08:49 AM;5.719625;8.944272;0;0;1445504929692;;;;;;;;;;;;;;;;;;;;;;;;;;;;6;1;00:00:15.5000000;3;69;None;None;False;RcAssistantTakeoff;16;False;False;True;True;True;2;2;0;False;Calibration;0;GpsAtti;-815;-8;-124;-5;-8;4;4.9;32.1032412357924;34.812068201408;0;0;0;0;False;False;1024;1024;1088;1347;1024;;;;;;;;;;;;;;;;;;;;
15.593;;;;;;;;;;;;;;;;;;;;;;;;10/22/2015 9:08:49 AM;5.824248;8.944272;0;0;1445504929790;True;Folding;Protect;;;;;;;;;;;;;;;;;;;;;;;;;6;1;00:00:15.6000000;3;69;None;None;False;RcAssistantTakeoff;16;False;False;True;True;True;2;2;0;False;Calibration;0;GpsAtti;-812;-3;-127;-3;-8;4;4.9;32.1032418544517;34.8120673644852;0;0;0;0;False;False;1024;1024;1070;1337;1024;;;;;;;;;;;;;;;;;;;;
15.694;;;;;;;;;;;;;;;;;;;;;;;;10/22/2015 9:08:49 AM;5.92218;9.433981;0;0;1445504929891;;;;;;;;;;;;;;;;;;;;;;;;;;;;6;1;00:00:15.7000000;3;69;None;None;False;RcAssistantTakeoff;16;False;False;True;True;True;2;2;0;False;Calibration;0;GpsAtti;-809;0;-129;-2;-8;5;4.9;32.1032422863987;34.8120664594645;0;0;0;0;False;False;1024;1024;1057;1333;1024;;;;;;;;;;;;;;;;;;;;
15.794;;;;;;;;;;;;;;;;;;;;;;;;10/22/2015 9:08:49 AM;6.0253;9.433981;0;0;1445504929991;;;;;;;;;;;;;;;;;;;;;;;;;;;;6;1;00:00:15.8000000;3;69;None;None;False;RcAssistantTakeoff;16;False;False;True;True;True;2;2;0;False;Calibration;0;GpsAtti;-807;-1;-121;-1;-8;5;4.9;32.1032431501055;34.8120660545375;0;0;0;0;False;False;1024;1024;1088;1343;1024;;;;;;;;;;;;;;;;;;;;
15.892;;;;;;;;;;;;;;;;;;;;;;;;10/22/2015 9:08:50 AM;6.129691;9.433981;0;0;1445504930089;;;;;;;;;;;;;;;;;;;;;;;;;;;;6;1;00:00:15.9000000;3;69;None;None;False;RcAssistantTakeoff;16;False;False;True;True;True;2;2;0;False;Calibration;0;GpsAtti;-806;-3;-111;-1;-8;5;4.9;32.1032436741934;34.8120651357501;0;0;0;0;False;False;1024;1024;1096;1339;1024;;;;;;;;;;;;;;;;;;;;
15.994;;;;;;;;;;;;;;;;;;;;;;;;10/22/2015 9:08:50 AM;6.249874;10;0;0;1445504930191;;;;;;;;;;;;;;;;;;;;;;;;;;;;6;1;00:00:16;2;69;None;None;False;RcAssistantTakeoff;16;False;False;True;True;True;2;2;0;False;Calibration;0;GpsAtti;-804;-4;-104;-1;-8;6;4.9;32.1032444636819;34.8120642633708;0;0;0;0;False;False;1024;1024;1087;1345;1024;;;;;;;;;;;;;;;;;;;;
16.094;0;0;Normal;32.11;7/1/2015 12:00:00 AM;456;-16782;-2147483648;15;100;4382;2629;14.862;60;;;;;;;;;;10/22/2015 9:08:50 AM;6.360304;10;0;0;1445504930291;True;Folding;Normal;;;;;;;;;;;;;;;;;;;;;;;;;6;1;00:00:16.1000000;2;69;None;None;False;RcAssistantTakeoff;16;False;False;False;True;True;2;2;0;False;Calibration;0;GpsAtti;-803;-3;-101;-1;-8;6;5;32.1032450741798;34.8120633389934;0;0;;;;;;;;;;;;;;;;60;15.008;0;NonGohome;None;3.59615;0;10;16;0;19;0;;
16.197;;;;;;;;;;;;;;;;;;;;;;;;10/22/2015 9:08:50 AM;6.495195;10.63015;0;0;1445504930394;;;;0;0;YawFollow;-812;0;-7;;;;;;;;;;;;;;;;;;;6;1;00:00:16.2000000;2;69;None;None;False;RcAssistantTakeoff;16;False;False;False;True;True;2;2;0;False;Calibration;0;GpsAtti;-804;-10;-95;-1;-8;7;5;32.1032462267513;34.8120628819319;0;0;0;0;False;False;1024;1024;1056;1347;1024;;;;;;;;;;;;;;;;;;;;
16.399;;;;;;;;;;;;;;;;;;;;;;;;10/22/2015 9:08:50 AM;6.731033;10.63015;0;0;1445504930596;;;;;;;;;;;;;;;;;;;;;;;;;;;;6;1;00:00:16.4000000;2;69;None;None;False;RcAssistantTakeoff;16;False;False;False;True;True;2;2;0;False;Calibration;0;GpsAtti;-808;-18;-98;0;-8;7;5;32.1032477974632;34.8120611972628;0;0;0;0;False;False;1024;1024;1059;1358;1024;;;;;;;;;;;;;;;;;;;;
16.494;;;;;;;;;;;;;;;;;;;;;;;;10/22/2015 9:08:50 AM;6.8485;10.63015;0;0;1445504930691;;;;;;;;;;;;;;;;;;;;;;;;;;;;6;1;00:00:16.5000000;2;69;None;None;False;RcAssistantTakeoff;16;False;False;False;True;True;2;2;0;False;Calibration;0;GpsAtti;-809;-22;-104;0;-8;7;5;32.1032486885278;34.8120605242376;0;0;0;0;False;False;1024;1024;1095;1349;1024;;;;;;;;;;;;;;;;;;;;
16.595;;;;;;;;;;;;;;;;;;;;;;;;10/22/2015 9:08:50 AM;6.961956;11.31371;0;0;1445504930792;;;;;;;;;;;;;;;;;;;;;;;;;;;;6;1;00:00:16.6000000;2;69;None;None;False;RcAssistantTakeoff;16;False;False;False;True;True;2;2;0;False;Calibration;0;GpsAtti;-809;-27;-103;-1;-8;8;5;32.1032495795355;34.8120599333485;0;0;0;0;False;False;1024;1024;1154;1350;1024;;;;;;;;;;;;;;;;;;;;
16.696;;;;;;;;;;;;;;;;;;;;;;;;10/22/2015 9:08:50 AM;7.076193;10.63015;0;0;1445504930893;;;;;;;;;;;;;;;;;;;;;;;;;;;;6;1;00:00:16.7000000;2;69;None;None;False;RcAssistantTakeoff;16;False;False;False;True;True;2;2;0;False;Calibration;0;GpsAtti;-810;-26;-104;-1;-8;7;5;32.1032503035206;34.812059072282;0;0;0;0;False;False;1024;1024;1136;1340;1024;;;;;;;;;;;;;;;;;;;;
16.994;;;;;;;;;;;;;;;;;;;;;;;;10/22/2015 9:08:51 AM;7.427432;11.31371;0;0;1445504931191;;;;;;;;;;;;;;;;;;;;;;;;;;;;6;1;00:00:17;3;69;None;None;False;RcAssistantTakeoff;16;False;False;False;True;True;2;2;0;False;Calibration;0;GpsAtti;-810;-26;-97;-2;-8;8;5;32.1032529330985;34.81205699762;0;0;0;0;False;False;1024;1024;1024;1351;1024;;;;;;;;;;;;;;;;;;;;
17.1;0;0;Normal;32.11;7/1/2015 12:00:00 AM;456;-19054;-2147483648;15;100;4382;2629;14.905;60;;;;;;;;;;10/22/2015 9:08:51 AM;7.549046;11.31371;0;0;1445504931297;;;;;;;;;;;;;;;;;;;;;;;;;;;;6;1;00:00:17.1000000;3;69;None;None;False;RcAssistantTakeoff;16;False;False;False;True;True;2;2;0;False;Calibration;0;GpsAtti;-810;-27;-104;-1;-8;8;5;32.1032538698387;34.8120563275241;0;0;0;0;False;False;1024;1024;1024;1368;1024;;;;;;;60;14.975;0;NonGohome;None;3.664934;0;10;16;0;19;0;;
17.201;;;;;;;;;;;;;;;;;;;;;;;;10/22/2015 9:08:51 AM;7.651127;11.31371;0;0;1445504931398;;;;;;;;;;;;;;;;;;;;;;;;;;;;6;1;00:00:17.2000000;2;69;None;None;False;RcAssistantTakeoff;16;False;False;False;True;True;2;2;0;False;Calibration;0;GpsAtti;-810;-23;-109;0;-8;8;4.9;32.1032546065572;34.812055678996;0;0;0;0;False;False;1024;1024;1024;1389;1024;;;;;;;;;;;;;;;;;;;;
17.293;;;;;;;;;;;;;;;;;;;;;;;;10/22/2015 9:08:51 AM;7.769822;11.31371;0;0;1445504931490;;;;;;;;;;;;;;;;;;;;;;;;;;;;6;1;00:00:17.3000000;2;69;None;None;False;RcAssistantTakeoff;16;False;False;False;True;True;2;2;0;False;Calibration;0;GpsAtti;-811;-18;-113;0;-8;8;4.9;32.1032553776294;34.8120548067453;0;0;0;0;False;False;1024;1024;1024;1431;1024;;;;;;;;;;;;;;;;;;;;
