RelativeTime;CenterBattery.LastStudyCycle;CenterBattery.TotalStudyCycle;CenterBattery.ConnectionStatus;CenterBattery.Temperature;CenterBattery.ProductDate;CenterBattery.SerialNumber;CenterBattery.Current;CenterBattery.ErrorType;CenterBattery.LoopNum;CenterBattery.Life;CenterBattery.FullCapacity;CenterBattery.CurrentCapacity;CenterBattery.CurrentPV;CenterBattery.RelativeCapacity;Recover.BatterySerialNumber;Recover.RemoteSerialNumber;Recover.CameraSerialNumber;Recover.ActiveTime;Recover.PlaneName;Recover.FlyControllerSerialNumber;Recover.AppVersion;Recover.AppType;Recover.DroneType;Custom.UpdateTime;Custom.Distance;Custom.HSpeed;Custom.IsVideo;Custom.IsPhoto;Custom.Timestamp;Deform.DeformProtected;Deform.TripodStatus;Deform.DeformMode;Gimbal.YawAngle;Gimbal.RollAdjust;Gimbal.Mode;Gimbal.Yaw;Gimbal.Roll;Gimbal.Pitch;Home.Height;Home.Latitude;Home.Longitude;Home.GoHomeHeight;Home.ReachedLimitHeight;Home.ReachedLimitDistance;Home.IsMultipleModeOpen;Home.IsIOCEnabled;Home.IsHomeRecord;Home.IsDynamicHomePointEnable;Home.IsCompassCeleing;Home.IsBeginnerMode;Home.HasGoHome;Home.IOCMode;Home.GoHomeStatus;Home.GoHomeMode;Home.CompassCeleStatus;Home.AirCraftHeadDirection;Osd.FlycVersion;Osd.MotorRevolution;Osd.FlyTime;Osd.SwaveHeight;Osd.Battery;Osd.NonGpsCause;Osd.MotorFailCause;Osd.MotorFailed;Osd.FlightAction;Osd.GpsNum;Osd.CanIOCWork;Osd.IsVisionUsed;Osd.IsSwaveWork;Osd.IsMotorUp;Osd.IsImuPreheated;Osd.GroundOrSky;Osd.ModeChannel;Osd.GoHomeStatus;Osd.CompassError;Osd.FlycCommand;Osd.RcState;Osd.FlycState;Osd.Yaw;Osd.Roll;Osd.Pitch;Osd.ZSpeed;Osd.YSpeed;Osd.XSpeed;Osd.Height;Osd.Latitude;Osd.Longitude;Osd.VoltageWarning;Osd.NonGpsCauseRaw;Rc.Custom2Status;Rc.Custom1Status;Rc.ShutterStatus;Rc.RecordStatus;Rc.GyroValue;Rc.Rudder;Rc.Throttle;Rc.Elevator;Rc.Aileron;RcGps.GpsStatus;RcGps.GpsNum;RcGps.YSpeed;RcGps.XSpeed;RcGps.Longitude;RcGps.Latitude;SmartBattery.Battery;SmartBattery.Voltage;SmartBattery.GoHomeCountDown;SmartBattery.SmartGoHomeStatus;SmartBattery.BatteryStatus;SmartBattery.VolumeConsume;SmartBattery.SafeFlyRadius;SmartBattery.LandBattery;SmartBattery.GoHomeBattery;SmartBattery.LandTime;SmartBattery.GoHomeTime;SmartBattery.UsefulTime;AppTip.Text;AppWarn.Text
0;;;;;;;;;;;;;;;;;;;;;;;;10/22/2015 8:59:58 AM;0;2;0;0;1445504398069;;;;0;0;YawFollow;845;0;0;;;;;;;;;;;;;;;;;;;6;1;00:00:00;0;41;None;None;False;RcAssistantTakeoff;16;False;False;True;True;True;0;2;0;False;0;0;GpsAtti;800;-24;47;0;0;-2;0;32.1031615518351;34.8122679444029;0;0;0;0;False;False;1024;1684;364;364;364;;;;;;;;;;;;;;;;;;;;
0.092;;;;;;;;;;;;;;;;;;;;;;;;10/22/2015 8:59:58 AM;0.01897236;2;0;0;1445504398161;;;;;;;;;;;;;;;;;;;;;;;;;;;;6;1;00:00:00.1000000;0;41;None;None;False;RcAssistantTakeoff;16;False;False;True;True;True;0;2;0;False;0;0;GpsAtti;800;-25;47;0;0;-2;0;32.1031617222301;34.812267962552;0;0;;;;;;;;;;False;0;0;0;0;0;;;;;;;;;;;;;;
0.193;;;;;;;;;;;;;;;;;;;;;;;;10/22/2015 8:59:58 AM;0.0345871;2;0;0;1445504398262;;;;;;;;;;;;;;;;;;;;;;;;;;;;6;1;00:00:00.2000000;0;41;None;None;False;RcAssistantTakeoff;16;False;False;True;True;True;0;2;0;False;0;0;GpsAtti;800;-25;47;0;0;-2;0;32.103161829873;34.8122678558931;0;0;;;;;;;;;;;;;;;;;;;;;;;;;;;;;
0.391;0;0;Normal;30.31;7/1/2015 12:00:00 AM;456;-1011;-2147483648;14;100;4402;4137;16.879;94;;;;;;;;;;10/22/2015 8:59:58 AM;0.06042036;2;0;0;1445504398460;True;FoldComplete;Protect;;;;;;;18.55189;32.1031614969385;34.8122679404211;30;False;False;False;False;True;False;False;False;False;CourseLock;0;1;0;1;6;1;00:00:00.4000000;0;41;None;None;False;RcAssistantTakeoff;16;False;False;True;True;True;0;2;0;False;0;0;GpsAtti;800;-26;46;0;0;-2;0;32.1031620626101;34.8122678680193;0;0;0;0;False;False;1024;1684;364;594;447;;;;;;;94;17.023;0;NonGohome;None;0;0;10;16;0;24;0;;
0.994;;;;;;;;;;;;;;;;;;;;;;;;10/22/2015 8:59:59 AM;0.07507032;2;0;0;1445504399063;;;;0;0;YawFollow;825;0;0;;;;;;;;;;;;;;;;;;;6;1;00:00:00.9000000;0;41;None;None;False;RcAssistantTakeoff;16;False;False;True;True;True;0;2;0;False;0;0;GpsAtti;800;-27;46;0;0;-2;0;32.1031619319308;34.8122678452053;0;0;;;;;;;;;;;;;;;;;;;;;;;;;;;;;
0.999;;;;;;;;;;;;;;;;;;;;;;;;10/22/2015 8:59:59 AM;0.1231096;2;0;0;1445504399068;;;;0;0;YawFollow;816;0;0;;;;;;;;;;;;;;;;;;;6;1;00:00:01;0;41;None;None;False;RcAssistantTakeoff;16;False;False;True;True;True;0;2;0;False;0;0;GpsAtti;800;-27;46;0;0;-2;0;32.1031623596916;34.8122677646522;0;0;0;0;False;False;1024;1048;1035;1024;1105;;;;;;;;;;;;;;;;;;;;
1.095;;;;;;;;;;;;;;;;;;;;;;;;10/22/2015 8:59:59 AM;0.1460387;2;0;0;1445504399164;;;;0;0;YawFollow;812;0;0;;;;;;;;;;;;;;;;;;;6;1;00:00:01.1000000;0;41;None;None;False;RcAssistantTakeoff;16;False;False;True;True;True;0;2;0;False;0;0;GpsAtti;800;-28;46;0;0;-2;0;32.1031621530327;34.8122677564701;0;0;0;0;False;False;1024;1024;1024;1024;1047;;;;;;;;;;;;;;;;;;;;
1.194;;;;;;;;;;;;;;;;;;;;;;;;10/22/2015 8:59:59 AM;0.1464026;2;0;0;1445504399263;;;;0;0;YawFollow;810;0;0;;;;;;;;;;;;;;;;;;;6;1;00:00:01.2000000;0;41;None;None;False;RcAssistantTakeoff;16;False;False;True;True;True;0;2;0;False;0;0;GpsAtti;800;-27;46;0;0;-2;0;32.1031621501553;34.8122677546169;0;0;0;0;False;False;1024;1024;1024;1024;1025;;;;;;;;;;;;;;;;;;;;
1.294;;;;;;;;;;;;;;;;;;;;;;;;10/22/2015 8:59:59 AM;0.1650331;2;0;0;1445504399363;;;;0;0;YawFollow;808;0;0;;;;;;;;;;;;;;;;;;;6;1;00:00:01.3000000;0;41;None;None;False;RcAssistantTakeoff;16;False;False;True;True;True;0;2;0;False;0;0;GpsAtti;800;-27;49;0;0;-2;0;32.1031623181298;34.8122677587138;0;0;0;0;False;False;1024;1024;1102;1024;1024;;;;;;;;;;;;;;;;;;;;
1.394;0;0;Normal;30.31;7/1/2015 12:00:00 AM;456;-1063;-2147483648;14;100;4402;4137;16.877;94;;;;;;;;;;10/22/2015 8:59:59 AM;0.1748398;2;0;0;1445504399463;;;;0;0;YawFollow;807;0;0;;;;;;;;;;;;;;;;;;;6;1;00:00:01.4000000;0;41;None;None;False;RcAssistantTakeoff;16;False;False;True;True;True;0;2;0;False;0;0;GpsAtti;800;-27;52;0;0;-2;0;32.1031624060948;34.8122677479914;0;0;0;0;False;False;1024;1024;1520;1024;1024;;;;;;;94;16.832;0;NonGohome;None;0;0;10;16;0;24;0;;
1.494;;;;;;;;;;;;;;;;;;;;;;;;10/22/2015 8:59:59 AM;0.1978133;2;0;0;1445504399563;;;;;;;;;;;;;;;;;;;;;;;;;;;;6;1;00:00:01.5000000;0;41;None;None;False;RcAssistantTakeoff;16;False;False;True;True;True;0;2;0;False;0;0;GpsAtti;800;-27;51;0;0;-2;0;32.1031621990837;34.8122677382718;0;0;0;0;False;False;1024;1024;1684;1024;1024;;;;;;;;;;;;;;;;;;;;
1.592;;;;;;;;;;;;;;;;;;;;;;;;10/22/2015 8:59:59 AM;0.2327232;1;0;0;1445504399661;;;;0;0;YawFollow;806;0;0;;;;;;;;;;;;;;;;;;;6;1;00:00:01.6000000;0;41;None;None;False;RcAssistantTakeoff;16;False;False;True;True;True;0;2;0;False;0;0;GpsAtti;800;-28;47;0;0;-1;0;32.10316251271;34.8122677704492;0;0;0;0;False;False;1024;1024;1661;1024;1024;;;;;;;;;;;;;;;;;;;;
1.695;;;;;;;;;;;;;;;;;;;;;;;;10/22/2015 8:59:59 AM;0.2551022;2;0;0;1445504399764;;;;;;;;;;;;;;;;;;;;;;;;;;;;6;1;00:00:01.7000000;0;41;None;None;False;RcAssistantTakeoff;16;False;False;True;True;True;0;2;0;False;0;0;GpsAtti;800;-28;49;0;0;-2;0;32.1031623109169;34.8122677670027;0;0;0;0;False;False;1024;1024;1651;1024;1024;;;;;;;;;;;;;;;;;;;;
1.793;;;;;;;;;;;;;;;;;;;;;;;;10/22/2015 8:59:59 AM;0.270245;2;0;0;1445504399862;;;;0;0;YawFollow;805;0;0;;;;;;;;;;;;;;;;;;;6;1;00:00:01.8000000;0;41;None;None;False;RcAssistantTakeoff;16;False;False;True;True;True;0;2;0;False;0;0;GpsAtti;800;-28;53;0;0;-2;0;32.1031624181024;34.8122676675928;0;0;0;0;False;False;1024;1024;1641;1024;1024;;;;;;;;;;;;;;;;;;;;
1.892;;;;;;;;;;;;;;;;;;;;;;;;10/22/2015 8:59:59 AM;0.2905254;2;0;0;1445504399961;True;FoldComplete;Normal;;;;;;;;;;;;;;;;;;;;;;;;;6;1;00:00:01.9000000;0;41;None;None;False;RcAssistantTakeoff;16;False;False;False;True;True;0;2;0;False;0;0;GpsAtti;800;-28;54;0;0;-2;0;32.1031626008724;34.8122676753625;0;0;0;0;False;False;1024;1024;1655;1024;1024;;;;;;;;;;;;;;;;;;;;
1.998;;;;;;;;;;;;;;;;;;;;;;;;10/22/2015 9:00:00 AM;0.2973415;1;0;0;1445504400067;;;;;;;;;;;;;;;;;;;;;;;;;;;;6;1;00:00:02;0;41;None;None;False;RcAssistantTakeoff;16;False;False;False;True;True;0;2;0;False;0;0;AssistedTakeoff;801;-29;49;0;0;-1;0;32.1031626623387;34.8122676758629;0;0;0;0;False;False;1024;1024;1684;1024;1024;;;;;;;;;;;;;;;;;;;"Tips__RC Assisted Takeoff";
2.093;;;;;;;;;;;;;;;;;;;;;;;;10/22/2015 9:00:00 AM;0.3169042;2;0;0;1445504400162;;;;0;0;YawFollow;804;0;0;;;;;;;;;;;;;;;;;;;6;1;00:00:02.1000000;0;41;None;None;False;RcAssistantTakeoff;16;False;False;False;True;True;0;2;0;False;0;0;AssistedTakeoff;801;-28;42;0;0;-2;0;32.1031624867341;34.812267695746;0;0;;;;;;;;;;;;;;;;;;;;;;;;;;;;;
2.192;;;;;;;;;;;;;;;;;;;;;;;;10/22/2015 9:00:00 AM;0.3507683;1;0;0;1445504400261;;;;;;;;;;;;;;;;;;;;;;;;;;;;6;1;00:00:02.2000000;2;41;None;None;False;RcAssistantTakeoff;16;False;False;False;True;True;0;2;0;False;0;0;AssistedTakeoff;801;-27;40;0;0;-1;0;32.1031627904846;34.812267732846;0;0;;;;;;;;;;;;;;;;;;;;;;;;;;;;;
2.291;;;;;;;;;;;;;;;;;;;;;;;;10/22/2015 9:00:00 AM;0.3714891;2;0;0;1445504400360;;;;;;;;;;;;;;;;;;;;;;;;;;;;6;1;00:00:02.3000000;2;41;None;None;False;RcAssistantTakeoff;16;False;False;False;True;True;0;2;0;False;0;0;AssistedTakeoff;800;-21;45;0;0;-2;0;32.1031626048283;34.8122677079485;0;0;;;;;;;;;;;;;;;;;;;;;;;;;;;;;
2.397;0;0;Normal;30.31;7/1/2015 12:00:00 AM;456;-1722;-2147483648;14;100;4402;4137;16.851;94;;;;;;;;;;10/22/2015 9:00:00 AM;0.3802902;2;0;0;1445504400466;;;;;;;;;;;;;;;;;;;;;;;;;;;;6;1;00:00:02.4000000;2;41;None;None;False;RcAssistantTakeoff;16;False;False;False;True;True;0;2;0;False;0;0;AssistedTakeoff;800;-6;49;-1;0;-2;0;32.1031626495196;34.8122676308884;0;0;0;0;False;False;1024;1024;1671;1024;1024;;;;;;;94;16.302;0;NonGohome;None;0;0;10;16;0;24;0;;
2.492;;;;;;;;;;;;;;;;;;;;;;;;10/22/2015 9:00:00 AM;0.3958496;3.162278;0;0;1445504400561;;;;;;;;;;;;;;;;;;;;;;;;;;;;6;1;00:00:02.5000000;3;41;None;None;False;RcAssistantTakeoff;16;False;False;False;True;True;2;2;0;False;0;0;GpsAtti;802;21;35;1;-1;-3;0;32.1031627160868;34.8122674857697;0;0;0;0;False;False;1024;1024;1585;1024;1024;;;;;;;;;;;;;;;;;;;;
2.59;;;;;;;;;;;;;;;;;;;;;;;;10/22/2015 9:00:00 AM;0.4254833;4.472136;0;0;1445504400659;;;;;;;;;;;;;;;;;;;;;;;;;;;;6;1;00:00:02.6000000;4;41;None;None;False;RcAssistantTakeoff;16;False;False;False;True;True;2;2;0;False;0;0;GpsAtti;804;27;12;-2;-2;-4;-0.1;32.1031625109551;34.812267284537;0;0;0;0;False;False;1024;1024;1384;1024;1024;;;;;;;;;;;;;;;;;;;;
2.69;;;;;;;;;;;;;;;;;;;;;;;;10/22/2015 9:00:00 AM;0.478777;5.385165;0;0;1445504400759;;;;;;;;;;;;;;;;;;;;;;;;;;;;6;1;00:00:02.7000000;2;41;None;None;False;RcAssistantTakeoff;16;False;False;False;True;True;2;2;0;False;0;0;GpsAtti;805;3;-10;-7;-2;-5;0;32.1031620732752;34.8122670512784;0;0;0;0;False;False;1024;1024;1402;1024;1024;;;;;;;;;;;;;;;;;;;;
2.789;;;;;;;;;;;;;;;;;;;;;;;;10/22/2015 9:00:00 AM;0.5130199;4.123106;0;0;1445504400858;;;;;;;;;;;;;;;;;;;;;;;;;;;;6;1;00:00:02.8000000;7;41;None;None;False;RcAssistantTakeoff;16;False;False;False;True;True;2;2;0;False;0;0;GpsAtti;806;-19;-19;-10;-1;-4;0;32.103161838275;34.8122668159087;0;0;0;0;False;False;1024;1024;1408;1024;1024;;;;;;;;;;;;;;;;;;;;
2.892;;;;;;;;;;;;;;;;;;;;;;;;10/22/2015 9:00:00 AM;0.5303956;5.09902;0;0;1445504400961;;;;;;;;;;;;;;;;;;;;;;;;;;;;6;1;00:00:02.9000000;8;41;None;None;False;RcAssistantTakeoff;16;False;False;False;True;True;2;2;0;False;0;0;GpsAtti;807;-31;-19;-10;-1;-5;0.2;32.1031617054832;34.8122667181783;0;0;0;0;False;False;1024;1024;1380;1024;1024;;;;;;;;;;;;;;;;;;;;
2.994;;;;;;;;;;;;;;;;;;;;;;;;10/22/2015 9:00:01 AM;0.5740783;4;0;0;1445504401063;;;;;;;;;;;;;;;;;;;;;;;;;;;;6;1;00:00:03;3;41;None;None;False;RcAssistantTakeoff;16;False;False;False;True;True;2;2;0;False;0;0;GpsAtti;806;-37;-19;-12;0;-4;0.3;32.1031614308317;34.8122663863966;0;0;0;0;False;False;1024;1024;1413;1024;1024;;;;;;;;;;;;;;;;;;;;
3.09;;;;;;;;;;;;;;;;;;;;;;;;10/22/2015 9:00:01 AM;0.6188991;4;0;0;1445504401159;;;;;;;;;;;;;;;;;;;;;;;;;;;;6;1;00:00:03.1000000;3;41;None;None;False;RcAssistantTakeoff;16;False;False;False;True;True;2;2;0;False;0;0;GpsAtti;807;-45;-20;-12;0;-4;0.5;32.1031610328385;34.8122663035188;0;0;0;0;False;False;1024;1024;1392;1024;1024;;;;;;;;;;;;;;;;;;;;
3.289;;;;;;;;;;;;;;;;;;;;;;;;10/22/2015 9:00:01 AM;0.6234057;3;0;0;1445504401358;;;;;;;;;;;;;;;;;;;;;;;;;;;;6;1;00:00:03.2000000;3;41;None;None;False;RcAssistantTakeoff;16;False;False;False;True;True;2;2;0;False;0;0;GpsAtti;808;-51;-19;-13;0;-3;0.6;32.1031610355138;34.8122662558753;0;0;;;;;;;;;;;;;;;;;;;;;;;;;;;;;
3.298;;;;;;;;;;;;;;;;;;;;;;;;10/22/2015 9:00:01 AM;0.6602269;3;0;0;1445504401367;;;;;;;;;;;;;;;;;;;;;;;;;;;;6;1;00:00:03.3000000;4;41;None;None;False;RcAssistantTakeoff;16;False;False;False;True;True;2;2;0;False;0;0;GpsAtti;808;-57;-19;-15;0;-3;0.8;32.1031607044657;34.8122662255114;0;0;0;0;False;False;1024;1024;1302;1024;1024;;;;;;;;;;;;;;;;;;;;
3.491;0;0;Normal;30.31;7/1/2015 12:00:00 AM;456;-4666;-2147483648;14;100;4402;4137;16.734;94;;;;;;;;;;10/22/2015 9:00:01 AM;0.6858999;3;0;0;1445504401560;;;;;;;;;;;;;;;;;;;;;;;;;;;;6;1;00:00:03.4000000;3;41;None;None;False;RcAssistantTakeoff;16;False;False;False;True;True;2;2;0;False;0;0;GpsAtti;808;-59;-16;-15;0;-3;0.9;32.1031606704488;34.8122659564575;0;0;;;;;;;;;;;;;;;;94;15.539;0;NonGohome;None;0;0;10;16;0;23;0;;
3.498;;;;;;;;;;;;;;;;;;;;;;;;10/22/2015 9:00:01 AM;0.7043173;2;0;0;1445504401567;;;;;;;;;;;;;;;;;;;;;;;;;;;;6;1;00:00:03.5000000;3;41;None;None;False;RcAssistantTakeoff;16;False;False;False;True;True;2;2;0;False;0;0;GpsAtti;807;-55;-12;-16;0;-2;1.1;32.1031605255144;34.8122658611583;0;0;0;0;False;False;1024;1024;1172;1024;1024;;;;;;;;;;;;;;;;;;;;
3.594;;;;;;;;;;;;;;;;;;;;;;;;10/22/2015 9:00:01 AM;0.713767;2;0;0;1445504401663;;;;;;;;;;;;;;;;;;;;;;;;;;;;6;1;00:00:03.6000000;2;41;None;None;False;RcAssistantTakeoff;16;False;False;False;True;True;2;2;0;False;0;0;GpsAtti;805;-52;-14;-15;0;-2;1.3;32.1031606068353;34.8122658312301;0;0;;;;;;;;;;;;;;;;;;;;;;;;;;;;;
3.691;;;;;;;;;;;;;;;;;;;;;;;;10/22/2015 9:00:01 AM;0.7387829;2;0;0;1445504401760;;;;;;;;;;;;;;;;;;;;;;;;;;;;6;1;00:00:03.7000000;3;41;None;None;False;RcAssistantTakeoff;16;False;False;False;True;True;2;2;0;False;0;0;GpsAtti;803;-50;-16;-12;0;-2;1.4;32.1031603836537;34.8122657925692;0;0;0;0;False;False;1024;1024;1149;1024;1024;;;;;;;;;;;;;;;;;;;;
3.792;;;;;;;;;;;;;;;;;;;;;;;;10/22/2015 9:00:01 AM;0.7819065;2;0;0;1445504401861;;;;;;;;;;;;;;;;;;;;;;;;;;;;6;1;00:00:03.8000000;3;41;None;None;False;RcAssistantTakeoff;16;False;False;False;True;True;2;2;0;False;0;0;GpsAtti;802;-52;-17;-8;0;-2;1.6;32.1031607288895;34.8122655822435;0;0;0;0;False;False;1024;1024;1162;1024;1024;;;;;;;;;;;;;;;;;;;;
3.891;;;;;;;;;;;;;;;;;;;;;;;;10/22/2015 9:00:01 AM;0.8054414;2;0;0;1445504401960;True;Stretching;Normal;;;;;;;;;;;;;;;;;;;;;;;;;6;1;00:00:03.9000000;3;41;None;None;False;RcAssistantTakeoff;16;False;False;False;True;True;2;2;0;False;0;0;GpsAtti;804;-52;-19;-7;0;-2;1.6;32.1031605194483;34.8122655418889;0;0;0;0;False;False;1024;1024;1207;1024;1024;;;;;;;;;;;;;;;;;;;;
3.99;;;;;;;;;;;;;;;;;;;;;;;;10/22/2015 9:00:02 AM;0.8366342;1;0;0;1445504402059;;;;;;;;;;;;;;;;;;;;;;;;;;;;6;1;00:00:04;3;41;None;None;False;RcAssistantTakeoff;16;False;False;False;True;True;2;2;0;False;0;0;GpsAtti;805;-52;-20;-5;0;-1;1.6;32.1031607984323;34.81226549958;0;0;0;0;False;False;1024;1024;1211;1024;1024;;;;;;;;;;;;;;;;;;;;
4.19;;;;;;;;;;;;;;;;;;;;;;;;10/22/2015 9:00:02 AM;0.8867587;0;0;0;1445504402259;;;;0;0;YawFollow;805;0;0;;;;;;;;;;;;;;;;;;;6;1;00:00:04.2000000;3;41;None;None;False;RcAssistantTakeoff;16;False;False;False;True;True;2;2;0;False;0;0;GpsAtti;813;-49;-13;-7;0;0;1.8;32.1031612415833;34.8122656042985;0;0;0;0;False;False;1024;1024;1144;1024;1024;;;;;;;;;;;;;;;;;;;;
4.289;;;;;;;;;;;;;;;;;;;;;;;;10/22/2015 9:00:02 AM;0.8924783;0;0;0;1445504402358;;;;;;;;;;;;;;;;;;;;;;;;;;;;6;1;00:00:04.3000000;3;41;None;None;False;RcAssistantTakeoff;16;False;False;False;True;True;2;2;0;False;0;0;GpsAtti;814;-43;-5;-6;0;0;1.9;32.1031612675879;34.8122656566326;0;0;0;0;False;False;1024;1024;1108;1024;1024;;;;;;;;;;;;;;;;;;;;
4.391;0;0;Normal;30.31;7/1/2015 12:00:00 AM;456;-21035;-2147483648;14;100;4402;4093;15.495;93;;;;;;;;;;10/22/2015 9:00:02 AM;0.9596912;0;0;0;1445504402460;;;;;;;;;;;;;;;;;;;;;;;;;;;;6;1;00:00:04.4000000;3;253;None;None;False;RcAssistantTakeoff;16;False;False;True;True;True;2;2;0;False;0;0;GpsAtti;815;-36;-1;-5;0;0;1.9;32.1031618533238;34.8122658398006;0;0;0;0;False;False;1024;1024;1116;1024;1024;;;;;;;93;15.703;0;NonGohome;None;0;0;10;16;0;22;0;;
4.492;;;;;;;;;;;;;;;;;;;;;;;;10/22/2015 9:00:02 AM;0.961309;0;0;0;1445504402561;;;;;;;;;;;;;;;;;;;;;;;;;;;;6;1;00:00:04.5000000;2;253;None;None;False;RcAssistantTakeoff;16;False;False;True;True;True;2;2;0;False;0;0;GpsAtti;814;-25;1;-3;0;0;1.9;32.1031618480562;34.8122658557839;0;0;0;0;False;False;1024;1024;1141;1024;1024;;;;;;;;;;;;;;;;;;;;
4.591;;;;;;;;;;;;;;;;;;;;;;;;10/22/2015 9:00:02 AM;1.023874;0;0;0;1445504402660;;;;;;;;;;;;;;;;;;;;;;;;;;;;6;1;00:00:04.6000000;2;253;None;None;False;RcAssistantTakeoff;16;False;False;True;True;True;2;2;0;False;0;0;GpsAtti;811;-18;3;-2;0;0;1.9;32.1031623996898;34.8122659950004;0;0;0;0;False;False;1024;1024;1149;1024;1024;;;;;;;;;;;;;;;;;;;;
4.692;;;;;;;;;;;;;;;;;;;;;;;;10/22/2015 9:00:02 AM;1.078614;0;0;0;1445504402761;;;;;;;;;;;;;;;;;;;;;;;;;;;;6;1;00:00:04.7000000;2;253;None;None;False;RcAssistantTakeoff;16;False;False;True;True;True;2;2;0;False;0;0;GpsAtti;808;-9;6;-4;0;0;2;32.1031628872398;34.8122660858662;0;0;0;0;False;False;1024;1024;1140;1024;1024;;;;;;;;;;;;;;;;;;;;
4.79;;;;;;;;;;;;;;;;;;;;;;;;10/22/2015 9:00:02 AM;1.121483;0;0;0;1445504402859;;;;;;;;;;;;;;;;;;;;;;;;;;;;6;1;00:00:04.8000000;2;253;None;None;False;RcAssistantTakeoff;16;False;False;True;True;True;2;2;0;False;0;0;GpsAtti;805;-2;8;-4;0;0;2.1;32.1031632485337;34.8122662474796;0;0;0;0;False;False;1024;1024;1128;1024;1024;;;;;;;;;;;;;;;;;;;;
4.891;;;;;;;;;;;;;;;;;;;;;;;;10/22/2015 9:00:02 AM;1.129955;0;0;0;1445504402960;True;Folding;Protect;;;;;;;;;;;;;;;;;;;;;;;;;6;1;00:00:04.9000000;2;253;None;None;False;RcAssistantTakeoff;16;False;False;True;True;True;2;2;0;False;0;0;GpsAtti;801;2;9;-3;0;0;2.1;32.103163299536;34.812266314316;0;0;0;0;False;False;1024;1024;1130;1024;1024;;;;;;;;;;;;;;;;;;;;
4.99;;;;;;;;;;;;;;;;;;;;;;;;10/22/2015 9:00:03 AM;1.227765;0;0;0;1445504403059;;;;;;;;;;;;;;;;;;;;;;;;;;;;6;1;00:00:05;2;253;None;None;False;RcAssistantTakeoff;16;False;False;True;True;True;2;2;0;False;0;0;GpsAtti;800;4;10;-2;0;0;2.1;32.103164167882;34.8122664962822;0;0;0;0;False;False;1024;1024;1133;1024;1024;;;;;;;;;;;;;;;;;;;;
5.09;;;;;;;;;;;;;;;;;;;;;;;;10/22/2015 9:00:03 AM;1.233504;0;0;0;1445504403159;;;;;;;;;;;;;;;;;;;;;;;;;;;;6;1;00:00:05.1000000;2;253;None;None;False;RcAssistantTakeoff;16;False;False;True;True;True;2;2;0;False;0;0;GpsAtti;798;6;13;-1;0;0;2.1;32.1031641849236;34.8122665536972;0;0;0;0;False;False;1024;1024;1122;1024;1024;;;;;;;;;;;;;;;;;;;;
5.19;;;;;;;;;;;;;;;;;;;;;;;;10/22/2015 9:00:03 AM;1.271959;0;0;0;1445504403259;;;;;;;;;;;;;;;;;;;;;;;;;;;;6;1;00:00:05.2000000;2;253;None;None;False;RcAssistantTakeoff;16;False;False;True;True;True;2;2;0;False;0;0;GpsAtti;797;9;15;-1;0;0;2.1;32.103164481002;34.8122667658294;0;0;0;0;False;False;1024;1024;1131;1024;1024;;;;;;;;;;;;;;;;;;;;
5.29;;;;;;;;;;;;;;;;;;;;;;;;10/22/2015 9:00:03 AM;1.320549;0;0;0;1445504403359;;;;;;;;;;;;;;;;;;;;;;;;;;;;6;1;00:00:05.3000000;2;253;None;None;False;RcAssistantTakeoff;16;False;False;True;True;True;2;2;0;False;0;0;GpsAtti;796;9;16;-1;0;0;2.1;32.1031648997566;34.8122669174246;0;0;0;0;False;False;1024;1024;1112;1024;1024;;;;;;;93;15.626;0;NonGohome;None;5.843056;0;10;16;0;22;0;;
5.492;;;;;;;;;;;;;;;;;;;;;;;;10/22/2015 9:00:03 AM;1.348819;1;0;0;1445504403561;;;;;;;;;;;;;;;;;;;;;;;;;;;;6;1;00:00:05.5000000;2;253;None;None;False;RcAssistantTakeoff;16;False;False;True;True;True;2;2;0;False;0;0;GpsAtti;797;5;22;-1;0;-1;2.1;32.1031650738636;34.8122671362317;0;0;0;0;False;False;1024;1016;1078;1024;1024;;;;;;;;;;;;;;;;;;;;
5.59;;;;;;;;;;;;;;;;;;;;;;;;10/22/2015 9:00:03 AM;1.426015;1;0;0;1445504403659;;;;;;;;;;;;;;;;;;;;;;;;;;;;6;1;00:00:05.6000000;2;253;None;None;False;RcAssistantTakeoff;16;False;False;False;True;True;2;2;0;False;0;0;GpsAtti;796;2;24;-3;0;-1;2.1;32.1031657285409;34.8122674143367;0;0;0;0;False;False;1024;950;1090;1024;1024;;;;;;;;;;;;;;;;;;;;
5.691;;;;;;;;;;;;;;;;;;;;;;;;10/22/2015 9:00:03 AM;1.443973;2;0;0;1445504403760;;;;0;0;YawFollow;800;0;0;;;;;;;;;;;;;;;;;;;6;1;00:00:05.7000000;5;253;None;None;False;RcAssistantTakeoff;16;False;False;False;True;True;2;2;0;False;0;0;GpsAtti;796;-1;25;-2;0;-2;2.2;32.103165570745;34.8122674571304;0;0;0;0;False;False;1024;850;1033;1024;1024;;;;;;;;;;;;;;;;;;;;
5.791;;;;;;;;;;;;;;;;;;;;;;;;10/22/2015 9:00:03 AM;1.448728;1;0;0;1445504403860;;;;0;0;YawFollow;790;0;0;;;;;;;;;;;;;;;;;;;6;1;00:00:05.8000000;5;253;None;None;False;RcAssistantTakeoff;16;False;False;False;True;True;2;2;0;False;0;0;GpsAtti;791;-3;26;-1;0;-1;2.2;32.1031656086217;34.8122674807475;0;0;0;0;False;False;1024;805;1024;1024;1024;;;;;;;;;;;;;;;;;;;;
5.891;;;;;;;;;;;;;;;;;;;;;;;;10/22/2015 9:00:03 AM;1.472671;2;0;0;1445504403960;True;FoldComplete;Normal;0;0;YawFollow;776;0;0;;;;;;;;;;;;;;;;;;;6;1;00:00:05.9000000;2;253;None;None;False;RcAssistantTakeoff;16;False;False;False;True;True;2;2;0;False;0;0;GpsAtti;776;-6;26;0;0;-2;2.2;32.1031654000303;34.8122674152467;0;0;0;0;False;False;1024;792;1024;1024;1024;;;;;;;;;;;;;;;;;;;;
5.991;;;;;;;;;;;;;;;;;;;;;;;;10/22/2015 9:00:04 AM;1.527259;2;0;0;1445504404060;;;;0;0;YawFollow;760;0;0;;;;;;;;;;;;;;;;;;;6;1;00:00:06;2;253;None;None;False;RcAssistantTakeoff;16;False;False;False;True;True;2;2;0;False;0;0;GpsAtti;750;-8;25;0;0;-2;2.2;32.1031658781107;34.8122675531359;0;0;0;0;False;False;1024;787;1024;1024;1024;;;;;;;;;;;;;;;;;;;;
6.091;;;;;;;;;;;;;;;;;;;;;;;;10/22/2015 9:00:04 AM;1.550419;2;0;0;1445504404160;;;;0;0;YawFollow;741;0;0;;;;;;;;;;;;;;;;;;;6;1;00:00:06.1000000;2;253;None;None;False;RcAssistantTakeoff;16;False;False;False;True;True;2;2;0;False;0;0;GpsAtti;719;-11;21;0;0;-2;2.2;32.1031656824187;34.8122674673805;0;0;0;0;False;False;1024;786;1024;1024;1024;;;;;;;;;;;;;;;;;;;;
6.194;;;;;;;;;;;;;;;;;;;;;;;;10/22/2015 9:00:04 AM;1.562108;2;0;0;1445504404263;;;;0;0;YawFollow;718;0;0;;;;;;;;;;;;;;;;;;;6;1;00:00:06.2000000;2;253;None;None;False;RcAssistantTakeoff;16;False;False;False;True;True;2;2;0;False;0;0;GpsAtti;685;-14;17;0;0;-2;2.2;32.1031656982773;34.8122675898126;0;0;0;0;False;False;1024;789;1024;1024;1024;;;;;;;;;;;;;;;;;;;;
6.29;;;;;;;;;;;;;;;;;;;;;;;;10/22/2015 9:00:04 AM;1.592962;2;0;0;1445504404359;;;;0;0;YawFollow;691;0;0;;;;;;;;;;;;;;;;;;;6;1;00:00:06.3000000;2;253;None;None;False;RcAssistantTakeoff;16;False;False;False;True;True;2;2;0;False;0;0;GpsAtti;651;-14;14;0;0;-2;2.1;32.1031659745657;34.8122676285574;0;0;0;0;False;False;1024;784;1024;1024;1024;;;;;;;;;;;;;;;;;;;;
6.491;;;;;;;;;;;;;;;;;;;;;;;;10/22/2015 9:00:04 AM;1.624201;3;0;0;1445504404560;;;;0;0;YawFollow;624;0;0;;;;;;;;;;;;;;;;;;;6;1;00:00:06.5000000;2;253;None;None;False;RcAssistantTakeoff;16;False;False;False;True;True;2;2;0;False;0;0;GpsAtti;581;-15;13;0;0;-3;2.1;32.1031656988533;34.8122675606015;0;0;0;0;False;False;1024;761;1024;1024;1024;;;;;;;;;;;;;;;;;;;;
6.59;;;;;;;;;;;;;;;;;;;;;;;;10/22/2015 9:00:04 AM;1.654323;2;0;0;1445504404659;;;;0;0;YawFollow;588;0;0;;;;;;;;;;;;;;;;;;;6;1;00:00:06.6000000;2;253;None;None;False;RcAssistantTakeoff;16;False;False;False;True;True;2;2;0;False;0;0;GpsAtti;543;-19;13;0;0;-2;2.1;32.10316596064;34.812267645797;0;0;0;0;False;False;1024;750;1024;1024;1024;;;;;;;;;;;;;;;;;;;;
6.692;;;;;;;;;;;;;;;;;;;;;;;;10/22/2015 9:00:04 AM;1.685582;3;0;0;1445504404761;;;;0;0;YawFollow;549;0;0;;;;;;;;;;;;;;;;;;;6;1;00:00:06.7000000;2;253;None;None;False;RcAssistantTakeoff;16;False;False;False;True;True;2;2;0;False;0;0;GpsAtti;503;-22;12;0;0;-3;2.1;32.1031656794707;34.8122676221508;0;0;0;0;False;False;1024;747;1024;1024;1024;;;;;;;;;;;;;;;;;;;;
6.793;;;;;;;;;;;;;;;;;;;;;;;;10/22/2015 9:00:04 AM;1.712071;3;0;0;1445504404862;;;;0;0;YawFollow;508;0;0;;;;;;;;;;;;;;;;;;;6;1;00:00:06.8000000;3;253;None;None;False;RcAssistantTakeoff;16;False;False;False;True;True;2;2;0;False;0;0;GpsAtti;462;-23;11;0;0;-3;2.2;32.1031654871622;34.8122674556556;0;0;0;0;False;False;1024;744;1024;1024;1024;;;;;;;;;;;;;;;;;;;;
6.891;;;;;;;;;;;;;;;;;;;;;;;;10/22/2015 9:00:04 AM;1.721489;3;0;0;1445504404960;;;;;;;;;;;;;;;;;;;;;;;;;;;;6;1;00:00:06.9000000;2;253;None;None;False;RcAssistantTakeoff;16;False;False;False;True;True;2;2;0;False;0;0;GpsAtti;418;-27;6;0;0;-3;2.2;32.1031655720922;34.8122674565552;0;0;0;0;False;False;1024;749;1024;1024;1024;;;;;;;;;;;;;;;;;;;;
6.99;;;;;;;;;;;;;;;;;;;;;;;;10/22/2015 9:00:05 AM;1.736174;3;0;0;1445504405059;;;;0;0;YawFollow;423;0;0;;;;;;;;;;;;;;;;;;;6;1;00:00:07;2;253;None;None;False;RcAssistantTakeoff;16;False;False;False;True;True;2;2;0;False;0;0;GpsAtti;372;-32;3;0;0;-3;2.1;32.1031655444822;34.8122673043875;0;0;0;0;False;False;1024;742;1024;1024;1024;;;;;;;;;;;;;;;;;;;;
7.095;;;;;;;;;;;;;;;;;;;;;;;;10/22/2015 9:00:05 AM;1.773469;3;0;0;1445504405164;;;;0;0;YawFollow;376;0;0;;;;;;;;;;;;;;;;;;;6;1;00:00:07.1000000;2;253;None;None;False;RcAssistantTakeoff;16;False;False;True;True;True;2;2;0;False;0;0;GpsAtti;327;-30;0;0;0;-3;2.1;32.1031652096206;34.8122672675839;0;0;0;0;False;False;1024;716;1024;1024;1024;;;;;;;;;;;;;;;;;;;;
7.191;;;;;;;;;;;;;;;;;;;;;;;;10/22/2015 9:00:05 AM;1.803397;3;0;0;1445504405260;;;;0;0;YawFollow;330;0;0;;;;;;;;;;;;;;;;;;;6;1;00:00:07.2000000;2;253;None;None;False;RcAssistantTakeoff;16;False;False;True;True;True;2;2;0;False;0;0;GpsAtti;284;-31;-5;0;0;-3;2.1;32.1031653226985;34.8122669796698;0;0;0;0;False;False;1024;716;1024;1024;1024;;;;;;;;;;;;;;;;;;;;
7.292;;;;;;;;;;;;;;;;;;;;;;;;10/22/2015 9:00:05 AM;1.841977;4;0;0;1445504405361;;;;0;0;YawFollow;285;0;0;;;;;;;;;;;;;;;;;;;6;1;00:00:07.3000000;2;253;None;None;False;RcAssistantTakeoff;16;False;False;True;True;True;2;2;0;False;0;0;GpsAtti;240;-36;-10;0;0;-4;2.2;32.1031649751019;34.8122669620644;0;0;0;0;False;False;1024;740;1024;1024;1024;;;;;;;;;;;;;;;;;;;;
7.393;0;0;Normal;30.31;7/1/2015 12:00:00 AM;456;-16284;-2147483648;14;100;4402;4093;15.652;93;;;;;;;;;;10/22/2015 9:00:05 AM;1.863679;3;0;0;1445504405462;True;FoldComplete;Protect;0;0;YawFollow;242;0;0;;;;;;;;;;;;;;;;;;;6;1;00:00:07.4000000;2;253;None;None;False;RcAssistantTakeoff;16;False;False;True;True;True;2;2;0;False;0;0;GpsAtti;194;-40;-13;0;0;-3;2.2;32.1031649295737;34.8122667384381;0;0;0;0;False;False;1024;776;1087;1024;1024;;;;;;;93;15.607;0;NonGohome;None;5.339321;0;10;16;0;22;0;;
7.494;;;;;;;;;;;;;;;;;;;;;;;;10/22/2015 9:00:05 AM;1.885629;3;0;0;1445504405563;;;;0;0;YawFollow;203;0;0;;;;;;;;;;;;;;;;;;;6;1;00:00:07.5000000;2;253;None;None;False;RcAssistantTakeoff;16;False;False;True;True;True;2;2;0;False;0;0;GpsAtti;152;-41;-17;0;0;-3;2.2;32.103164983635;34.8122665147165;0;0;0;0;False;False;1024;953;1170;1024;1024;;;;;;;;;;;;;;;;;;;;
7.591;;;;;;;;;;;;;;;;;;;;;;;;10/22/2015 9:00:05 AM;1.924311;2;0;0;1445504405660;;;;0;0;YawFollow;174;0;0;;;;;;;;;;;;;;;;;;;6;1;00:00:07.6000000;2;253;None;None;False;RcAssistantTakeoff;16;False;False;True;True;True;2;2;0;False;0;0;GpsAtti;114;-36;-17;0;0;-2;2.2;32.1031649428131;34.8122661077026;0;0;0;0;False;False;1024;1003;1219;1024;1024;;;;;;;;;;;;;;;;;;;;
7.79;;;;;;;;;;;;;;;;;;;;;;;;10/22/2015 9:00:05 AM;2.01485;2;0;0;1445504405859;;;;0;0;YawFollow;136;0;0;;;;;;;;;;;;;;;;;;;6;1;00:00:07.8000000;2;253;None;None;False;RcAssistantTakeoff;16;False;False;True;True;True;2;2;0;False;0;0;GpsAtti;92;-20;-14;-2;0;-2;2.2;32.1031648711034;34.8122651521493;0;0;0;0;False;False;1024;972;1240;1024;1024;;;;;;;;;;;;;;;;;;;;
7.89;;;;;;;;;;;;;;;;;;;;;;;;10/22/2015 9:00:05 AM;2.04411;3;0;0;1445504405959;;;;0;0;YawFollow;127;0;0;;;;;;;;;;;;;;;;;;;6;1;00:00:07.9000000;3;253;None;None;False;RcAssistantTakeoff;16;False;False;True;True;True;2;2;0;False;0;0;GpsAtti;89;-22;-16;-4;0;-3;2.2;32.103164608771;34.8122651187152;0;0;0;0;False;False;1024;1023;1184;1024;1024;;;;;;;;;;;;;;;;;;;;
7.995;;;;;;;;;;;;;;;;;;;;;;;;10/22/2015 9:00:06 AM;2.095993;2;0;0;1445504406064;;;;0;0;YawFollow;121;0;0;;;;;;;;;;;;;;;;;;;6;1;00:00:08;3;253;None;None;False;RcAssistantTakeoff;16;False;False;True;True;True;2;2;0;False;0;0;GpsAtti;87;-22;-17;-5;0;-2;2.2;32.1031646566454;34.8122645718995;0;0;0;0;False;False;1024;1024;1178;1024;1024;;;;;;;;;;;;;;;;;;;;
8.11;;;;;;;;;;;;;;;;;;;;;;;;10/22/2015 9:00:06 AM;2.147434;2;0;0;1445504406179;;;;0;0;YawFollow;117;0;0;;;;;;;;;;;;;;;;;;;6;1;00:00:08.1000000;3;253;None;None;False;RcAssistantTakeoff;16;False;False;True;True;True;2;2;0;False;0;0;GpsAtti;86;-23;-17;-5;0;-2;2.3;32.1031646776309;34.8122640274439;0;0;0;0;False;False;1024;1024;1159;1024;1024;;;;;;;;;;;;;;;;;;;;
8.296;;;;;;;;;;;;;;;;;;;;;;;;10/22/2015 9:00:06 AM;2.222132;3;0;0;1445504406365;;;;0;0;YawFollow;111;0;0;;;;;;;;;;;;;;;;;;;6;1;00:00:08.3000000;4;253;None;None;False;RcAssistantTakeoff;16;False;False;False;True;True;2;2;0;False;0;0;GpsAtti;84;-26;-17;-4;0;-3;2.4;32.1031642040057;34.812263464658;0;0;0;0;False;False;1024;1024;1174;1024;1024;;;;;;;;;;;;;;;;;;;;
8.392;0;0;Normal;30.31;7/1/2015 12:00:00 AM;456;-16416;-2147483648;14;100;4402;4093;15.638;93;;;;;;;;;;10/22/2015 9:00:06 AM;2.353812;3;0;0;1445504406461;True;FoldComplete;Normal;0;0;YawFollow;109;0;0;;;;;;;;;;;;;;;;;;;6;1;00:00:08.4000000;4;253;None;None;False;RcAssistantTakeoff;16;False;False;False;True;True;2;2;0;False;0;0;GpsAtti;83;-23;-24;-3;0;-3;2.4;32.1031642846613;34.8122620727281;0;0;0;0;False;False;1024;1024;1176;1024;1024;;;;;;;93;15.48;0;NonGohome;None;5.222234;0;10;16;0;22;0;;
8.495;;;;;;;;;;;;;;;;;;;;;;;;10/22/2015 9:00:06 AM;2.387569;3;0;0;1445504406564;;;;0;0;YawFollow;108;0;0;;;;;;;;;;;;;;;;;;;6;1;00:00:08.5000000;4;253;None;None;False;RcAssistantTakeoff;16;False;False;False;True;True;2;2;0;False;0;0;GpsAtti;84;-18;-31;-3;0;-3;2.4;32.1031639816758;34.8122620380625;0;0;0;0;False;False;1024;1024;1191;1024;1024;;;;;;;;;;;;;;;;;;;;
8.591;;;;;;;;;;;;;;;;;;;;;;;;10/22/2015 9:00:06 AM;2.471776;3;0;0;1445504406660;;;;0;0;YawFollow;107;0;0;;;;;;;;;;;;;;;;;;;6;1;00:00:08.6000000;5;253;None;None;False;RcAssistantTakeoff;16;False;False;False;True;True;2;2;0;False;0;0;GpsAtti;85;-10;-36;-4;0;-3;2.5;32.1031638232983;34.812261165511;0;0;0;0;False;False;1024;1024;1228;1024;1024;;;;;;;;;;;;;;;;;;;;
8.69;;;;;;;;;;;;;;;;;;;;;;;;10/22/2015 9:00:06 AM;2.550809;3;0;0;1445504406759;;;;0;0;YawFollow;106;0;0;;;;;;;;;;;;;;;;;;;6;1;00:00:08.7000000;5;253;None;None;False;RcAssistantTakeoff;16;False;False;False;True;True;2;2;0;False;0;0;GpsAtti;88;-4;-36;-4;0;-3;2.5;32.1031636482602;34.8122603537994;0;0;0;0;False;False;1024;1024;1230;1024;1024;;;;;;;;;;;;;;;;;;;;
8.791;;;;;;;;;;;;;;;;;;;;;;;;10/22/2015 9:00:06 AM;2.632102;2;0;0;1445504406860;;;;;;;;;;;;;;;;;;;;;;;;;;;;6;1;00:00:08.8000000;5;253;None;None;False;RcAssistantTakeoff;16;False;False;False;True;True;2;2;0;False;0;0;GpsAtti;89;6;-40;-4;0;-2;2.6;32.1031634864004;34.8122595137535;0;0;0;0;False;False;1024;1024;1216;1024;1024;;;;;;;;;;;;;;;;;;;;
8.893;;;;;;;;;;;;;;;;;;;;;;;;10/22/2015 9:00:06 AM;2.65893;2.236068;0;0;1445504406962;;;;0;0;YawFollow;105;0;0;;;;;;;;;;;;;;;;;;;6;1;00:00:08.9000000;6;253;None;None;False;RcAssistantTakeoff;16;False;False;False;True;True;2;2;0;False;0;0;GpsAtti;89;15;-45;-5;1;-2;2.6;32.1031632485744;34.8122595659116;0;0;0;0;False;False;1024;1024;1170;1024;1024;;;;;;;;;;;;;;;;;;;;
8.992;;;;;;;;;;;;;;;;;;;;;;;;10/22/2015 9:00:07 AM;2.723871;2;0;0;1445504407061;;;;;;;;;;;;;;;;;;;;;;;;;;;;6;1;00:00:09;3;253;None;None;False;RcAssistantTakeoff;16;False;False;False;True;True;2;2;0;False;0;0;GpsAtti;90;11;-45;-6;0;-2;2.7;32.1031632085382;34.8122588794732;0;0;0;0;False;False;1024;1024;1172;1024;1024;;;;;;;;;;;;;;;;;;;;
9.09;;;;;;;;;;;;;;;;;;;;;;;;10/22/2015 9:00:07 AM;2.792719;2.828427;0;0;1445504407159;;;;;;;;;;;;;;;;;;;;;;;;;;;;6;1;00:00:09.1000000;4;253;None;None;False;RcAssistantTakeoff;16;False;False;False;True;True;2;2;0;False;0;0;GpsAtti;92;4;-42;-5;2;-2;2.7;32.1031631241111;34.8122581568016;0;0;0;0;False;False;1024;1023;1199;1024;1024;;;;;;;;;;;;;;;;;;;;
9.19;;;;;;;;;;;;;;;;;;;;;;;;10/22/2015 9:00:07 AM;2.847477;2.236068;0;0;1445504407259;;;;;;;;;;;;;;;;;;;;;;;;;;;;6;1;00:00:09.2000000;4;253;None;None;False;RcAssistantTakeoff;16;False;False;False;True;True;2;2;0;False;0;0;GpsAtti;94;4;-41;-4;1;-2;2.8;32.1031629777074;34.8122576027187;0;0;0;0;False;False;1024;1024;1238;1024;1024;;;;;;;;;;;;;;;;;;;;
9.289;;;;;;;;;;;;;;;;;;;;;;;;10/22/2015 9:00:07 AM;2.879353;2.828427;0;0;1445504407358;;;;0;0;YawFollow;104;0;0;;;;;;;;;;;;;;;;;;;6;1;00:00:09.3000000;2;253;None;None;False;RcAssistantTakeoff;16;False;False;False;True;True;2;2;0;False;0;0;GpsAtti;95;4;-40;-5;2;-2;2.8;32.1031627674514;34.8122578330183;0;0;0;0;False;False;1024;1024;1231;1024;1024;;;;;;;;;;;;;;;;;;;;
9.39;0;0;Normal;30.31;7/1/2015 12:00:00 AM;456;-16954;-2147483648;14;100;4402;4093;15.589;93;;;;;;;;;;10/22/2015 9:00:07 AM;3.004358;1.414214;0;0;1445504407459;;;;;;;;;;;;;;;;;;;;;;;;;;;;6;1;00:00:09.4000000;3;253;None;None;False;RcAssistantTakeoff;16;False;False;False;True;True;2;2;0;False;0;0;GpsAtti;96;4;-41;-5;1;-1;2.9;32.1031628630271;34.8122565133635;0;0;0;0;False;False;1024;1024;1180;1024;1024;;;;;;;93;15.424;0;NonGohome;None;5.14552;0;10;16;0;21;0;;
9.493;;;;;;;;;;;;;;;;;;;;;;;;10/22/2015 9:00:07 AM;3.036913;3.162278;0;0;1445504407562;;;;;;;;;;;;;;;;;;;;;;;;;;;;6;1;00:00:09.5000000;4;253;None;None;False;RcAssistantTakeoff;16;False;False;False;True;True;2;2;0;False;0;0;GpsAtti;98;6;-41;-6;3;-1;2.9;32.1031626933216;34.8122567948274;0;0;0;0;False;False;1024;1024;1059;1022;1024;;;;;;;;;;;;;;;;;;;;
9.591;;;;;;;;;;;;;;;;;;;;;;;;10/22/2015 9:00:07 AM;3.082092;2.236068;0;0;1445504407660;;;;;;;;;;;;;;;;;;;;;;;;;;;;6;1;00:00:09.6000000;4;253;None;None;False;RcAssistantTakeoff;16;False;False;False;True;True;2;2;0;False;0;0;GpsAtti;98;8;-39;-5;2;-1;3;32.1031627849865;34.8122563284305;0;0;0;0;False;False;1024;1024;1024;1023;1024;;;;;;;;;;;;;;;;;;;;
9.792;;;;;;;;;;;;;;;;;;;;;;;;10/22/2015 9:00:07 AM;3.17984;2.236068;0;0;1445504407861;;;;;;;;;;;;;;;;;;;;;;;;;;;;6;1;00:00:09.8000000;2;253;None;None;False;RcAssistantTakeoff;16;False;False;False;True;True;2;2;0;False;0;0;GpsAtti;95;7;-37;-2;2;-1;3;32.1031629439059;34.8122553097644;0;0;0;0;False;False;1024;1024;1024;1024;1006;;;;;;;;;;;;;;;;;;;;
9.892;;;;;;;;;;;;;;;;;;;;;;;;10/22/2015 9:00:07 AM;3.216271;4.123106;0;0;1445504407961;;;;0;0;YawFollow;103;0;0;;;;;;;;;;;;;;;;;;;6;1;00:00:09.9000000;2;253;None;None;False;RcAssistantTakeoff;16;False;False;False;True;True;2;2;0;False;0;0;GpsAtti;92;7;-36;-1;4;-1;3;32.1031628600205;34.8122556829589;0;0;0;0;False;False;1024;1024;1024;1024;1013;;;;;;;;;;;;;;;;;;;;
9.99;;;;;;;;;;;;;;;;;;;;;;;;10/22/2015 9:00:08 AM;3.327153;3.162278;0;0;1445504408059;;;;;;;;;;;;;;;;;;;;;;;;;;;;6;1;00:00:10;2;253;None;None;False;RcAssistantTakeoff;16;False;False;False;True;True;2;2;0;False;0;0;GpsAtti;89;9;-33;0;3;-1;3;32.1031630678414;34.8122545338167;0;0;0;0;False;False;1024;1024;1060;1024;1024;;;;;;;;;;;;;;;;;;;;
10.091;;;;;;;;;;;;;;;;;;;;;;;;10/22/2015 9:00:08 AM;3.365247;4.123106;0;0;1445504408160;;;;0;0;YawFollow;102;0;0;;;;;;;;;;;;;;;;;;;6;1;00:00:10.1000000;2;253;None;None;False;RcAssistantTakeoff;16;False;False;False;True;True;2;2;0;False;0;0;GpsAtti;86;14;-33;0;4;-1;3;32.1031629752427;34.8122549224937;0;0;0;0;False;False;1024;1024;1064;1024;1024;;;;;;;;;;;;;;;;;;;;
10.489;;;;;;;;;;;;;;;;;;;;;;;;10/22/2015 9:00:08 AM;3.384594;5.09902;0;0;1445504408558;;;;0;0;YawFollow;101;0;0;;;;;;;;;;;;;;;;;;;6;1;00:00:10.5000000;2;253;None;None;False;RcAssistantTakeoff;16;False;False;True;True;True;2;2;0;False;0;0;GpsAtti;86;2;-40;0;5;-1;3;32.1031628159254;34.8122548389347;0;0;0;0;False;False;1024;1024;1024;1024;979;;;;;;;;;;;;;;;;;;;;
10.591;;;;;;;;;;;;;;;;;;;;;;;;10/22/2015 9:00:08 AM;3.437428;4.123106;0;0;1445504408660;;;;0;0;YawFollow;100;0;0;;;;;;;;;;;;;;;;;;;6;1;00:00:10.6000000;2;253;None;None;False;RcAssistantTakeoff;16;False;False;True;True;True;2;2;0;False;0;0;GpsAtti;88;-1;-40;0;4;-1;3;32.1031630261768;34.8122543366135;0;0;0;0;False;False;1024;1024;1024;1024;873;;;;;;;;;;;;;;;;;;;;
10.692;;;;;;;;;;;;;;;;;;;;;;;;10/22/2015 9:00:08 AM;3.491465;5.09902;0;0;1445504408761;;;;;;;;;;;;;;;;;;;;;;;;;;;;6;1;00:00:10.7000000;2;253;None;None;False;RcAssistantTakeoff;16;False;False;True;True;True;2;2;0;False;0;0;GpsAtti;91;-6;-37;0;5;-1;3;32.1031629024744;34.8122548903803;0;0;0;0;False;False;1024;1024;1024;1024;838;;;;;;;;;;;;;;;;;;;;
10.792;;;;;;;;;;;;;;;;;;;;;;;;10/22/2015 9:00:08 AM;3.50424;4.123106;0;0;1445504408861;;;;;;;;;;;;;;;;;;;;;;;;;;;;6;1;00:00:10.8000000;2;253;None;None;False;RcAssistantTakeoff;16;False;False;True;True;True;2;2;0;False;0;0;GpsAtti;94;-45;-34;0;4;-1;3;32.1031629214728;34.8122550238751;0;0;0;0;False;False;1024;1024;1024;1024;858;;;;;;;;;;;;;;;;;;;;
10.892;;;;;;;;;;;;;;;;;;;;;;;;10/22/2015 9:00:08 AM;3.540385;4.123106;0;0;1445504408961;True;FoldComplete;Protect;;;;;;;;;;;;;;;;;;;;;;;;;6;1;00:00:10.9000000;2;253;None;None;False;RcAssistantTakeoff;16;False;False;True;True;True;2;2;0;False;0;0;GpsAtti;96;-88;-35;0;4;-1;3;32.1031631143723;34.8122547151662;0;0;0;0;False;False;1024;1024;1024;1024;863;;;;;;;;;;;;;;;;;;;;
10.99;;;;;;;;;;;;;;;;;;;;;;;;10/22/2015 9:00:09 AM;3.545522;2;0;0;1445504409059;;;;;;;;;;;;;;;;;;;;;;;;;;;;6;1;00:00:11;2;253;None;None;False;RcAssistantTakeoff;16;False;False;True;True;True;2;2;0;False;0;0;GpsAtti;98;-101;-34;0;2;0;3;32.1031631342281;34.8122546659946;0;0;0;0;False;False;1024;1024;1024;1024;866;;;;;;;;;;;;;;;;;;;;
11.091;;;;;;;;;;;;;;;;;;;;;;;;10/22/2015 9:00:09 AM;3.566239;1;0;0;1445504409160;;;;;;;;;;;;;;;;;;;;;;;;;;;;6;1;00:00:11.1000000;2;253;None;None;False;RcAssistantTakeoff;16;False;False;True;True;True;2;2;0;False;0;0;GpsAtti;100;-102;-36;0;1;0;3;32.103163080062;34.8122548760622;0;0;0;0;False;False;1024;1024;1024;1024;869;;;;;;;;;;;;;;;;;;;;
11.192;;;;;;;;;;;;;;;;;;;;;;;;10/22/2015 9:00:09 AM;3.644455;0;0;0;1445504409261;;;;;;;;;;;;;;;;;;;;;;;;;;;;6;1;00:00:11.2000000;2;253;None;None;False;RcAssistantTakeoff;16;False;False;False;True;True;2;2;0;False;0;0;GpsAtti;104;-101;-38;0;0;0;3;32.1031633246157;34.8122540987693;0;0;0;0;False;False;1024;1024;1024;1024;868;;;;;;;;;;;;;;;;;;;;
11.291;;;;;;;;;;;;;;;;;;;;;;;;10/22/2015 9:00:09 AM;3.645995;0;0;0;1445504409360;;;;;;;;;;;;;;;;;;;;;;;;;;;;6;1;00:00:11.3000000;2;253;None;None;False;RcAssistantTakeoff;16;False;False;False;True;True;2;2;0;False;0;0;GpsAtti;107;-95;-38;0;0;0;3;32.1031633112557;34.8122540943177;0;0;0;0;False;False;1024;1024;1024;1024;874;;;;;;;;;;;;;;;;;;;;
11.392;0;0;Normal;30.41;7/1/2015 12:00:00 AM;456;-19139;-2147483648;14;100;4402;4093;15.377;93;"	";"04DJA26046";"048LA10847";7/29/2015 10:50:00 AM;"Phantom 3";"03Z0172712";"2.3.0";1;4;10/22/2015 9:00:09 AM;3.69479;1;0;0;1445504409461;;;;;;;;;;;;;;;;;;;;;;;;;;;;6;1;00:00:11.4000000;2;253;None;None;False;RcAssistantTakeoff;16;False;False;False;True;True;2;2;0;False;0;0;GpsAtti;107;-89;-36;0;-1;0;3;32.1031633842278;34.8122535844929;0;0;0;0;False;False;1024;1024;1024;1024;872;;;;;;;;;;;;;;;;;;;;
11.693;;;;;;;;;;;;;;;;;;;;;;;;10/22/2015 9:00:09 AM;3.833995;2;0;0;1445504409762;;;;0;0;YawFollow;101;0;0;;;;;;;;;;;;;;;;;;;6;1;00:00:11.7000000;3;253;None;None;False;RcAssistantTakeoff;16;False;False;False;True;True;2;2;0;False;0;0;GpsAtti;107;-77;-35;0;-2;0;3;32.103163595684;34.8122521306858;0;0;0;0;False;False;1024;1024;1024;1023;1024;;;;;;;;;;;;;;;;;;;;
11.791;;;;;;;;;;;;;;;;;;;;;;;;10/22/2015 9:00:09 AM;3.948285;2;0;0;1445504409860;True;FoldComplete;Normal;;;;;;;;;;;;;;;;;;;;;;;;;6;1;00:00:11.8000000;3;253;None;None;False;RcAssistantTakeoff;16;False;False;False;True;True;2;2;0;False;0;0;GpsAtti;106;-63;-32;0;-2;0;3;32.1031637799743;34.8122509392926;0;0;0;0;False;False;1024;1024;1024;1024;1099;;;;;;;;;;;;;;;;;;;;
11.99;;;;;;;;;;;;;;;;;;;;;;;;10/22/2015 9:00:10 AM;4.069724;2;0;0;1445504410059;;;;;;;;;;;;;;;;;;;;;;;;;;;;6;1;00:00:12;3;253;None;None;False;RcAssistantTakeoff;16;False;False;False;True;True;2;2;0;False;0;0;GpsAtti;102;-45;-31;-1;-2;0;3.1;32.1031639836652;34.8122496751018;0;0;0;0;False;False;1024;1024;1024;1024;1267;;;;;;;;;;;;;;;;;;;;
12.099;;;;;;;;;;;;;;;;;;;;;;;;10/22/2015 9:00:10 AM;4.096514;2;0;0;1445504410168;;;;;;;;;;;;;;;;;;;;;;;;;;;;6;1;00:00:12.1000000;3;253;None;None;False;RcAssistantTakeoff;16;False;False;False;True;True;2;2;0;False;0;0;GpsAtti;102;-22;-36;-1;-2;0;3.1;32.1031640272244;34.8122493959157;0;0;0;0;False;False;1024;1024;1024;1024;1161;;;;;;;;;;;;;;;;;;;;
12.19;;;;;;;;;;;;;;;;;;;;;;;;10/22/2015 9:00:10 AM;4.228568;2;0;0;1445504410259;;;;;;;;;;;;;;;;;;;;;;;;;;;;6;1;00:00:12.2000000;4;253;None;None;False;RcAssistantTakeoff;16;False;False;False;True;True;2;2;0;False;0;0;GpsAtti;100;4;-38;0;-2;0;3.1;32.1031642021158;34.812248011973;0;0;0;0;False;False;1024;1024;1024;1024;1024;;;;;;;;;;;;;;;;;;;;
12.291;;;;;;;;;;;;;;;;;;;;;;;;10/22/2015 9:00:10 AM;4.244251;0;0;0;1445504410360;;;;;;;;;;;;;;;;;;;;;;;;;;;;6;1;00:00:12.3000000;3;253;None;None;False;RcAssistantTakeoff;16;False;False;False;True;True;2;2;0;False;0;0;GpsAtti;99;9;-34;0;0;0;3.1;32.1031642344895;34.8122478502153;0;0;;;;;;;;;;;;;;;;;;;;;;;;;;;;;
12.392;0;0;Normal;30.41;7/1/2015 12:00:00 AM;456;-16929;-2147483648;14;100;4402;4093;15.46;93;;;;;;;;;;10/22/2015 9:00:10 AM;4.314259;1;0;0;1445504410461;;;;;;;;;;;;;;;;;;;;;;;;;;;;6;1;00:00:12.4000000;3;253;None;None;False;RcAssistantTakeoff;16;False;False;False;True;True;2;2;0;False;0;0;GpsAtti;98;-8;-31;0;-1;0;3.1;32.103164305736;34.8122471132192;0;0;;;;;;;;;;;;;;;;93;15.474;0;NonGohome;None;5.070718;0;10;16;0;21;0;;
12.494;;;;;;;;;;;;;;;;;;;;;;;;10/22/2015 9:00:10 AM;4.387627;0;0;0;1445504410563;;;;;;;;;;;;;;;;;;;;;;;;;;;;6;1;00:00:12.5000000;3;253;None;None;False;RcAssistantTakeoff;16;False;False;False;True;True;2;2;0;False;0;0;GpsAtti;95;-48;-30;0;0;0;3.1;32.1031644338955;34.8122463506075;0;0;;;;;;;;;;;;;;;;;;;;;;;;;;;;;
12.59;;;;;;;;;;;;;;;;;;;;;;;;10/22/2015 9:00:10 AM;4.468054;1;0;0;1445504410659;;;;;;;;;;;;;;;;;;;;;;;;;;;;6;1;00:00:12.6000000;3;253;None;None;False;RcAssistantTakeoff;16;False;False;False;True;True;2;2;0;False;0;0;GpsAtti;91;-65;-30;0;-1;0;3.1;32.103164596211;34.8122455200932;0;0;;;;;;;;;;;;;;;;;;;;;;;;;;;;;
12.694;;;;;;;;;;;;;;;;;;;;;;;;10/22/2015 9:00:10 AM;4.484428;1;0;0;1445504410763;;;;0;0;YawFollow;100;0;0;;;;;;;;;;;;;;;;;;;6;1;00:00:12.7000000;3;253;None;None;False;RcAssistantTakeoff;16;False;False;False;True;True;2;2;0;False;0;0;GpsAtti;89;-63;-28;0;-1;0;3.1;32.1031646172536;34.8122453483848;0;0;;;;;;;;;;;;;;;;;;;;;;;;;;;;;
12.79;;;;;;;;;;;;;;;;;;;;;;;;10/22/2015 9:00:10 AM;4.637286;2;0;0;1445504410859;;;;;;;;;;;;;;;;;;;;;;;;;;;;6;1;00:00:12.8000000;3;253;None;None;False;RcAssistantTakeoff;16;False;False;False;True;True;2;2;0;False;0;0;GpsAtti;86;-58;-31;0;-2;0;3.1;32.1031649139356;34.8122437668112;0;0;0;0;False;False;1024;1024;986;1024;1024;;;;;;;;;;;;;;;;;;;;
12.89;;;;;;;;;;;;;;;;;;;;;;;;10/22/2015 9:00:10 AM;4.664782;2;0;0;1445504410959;;;;;;;;;;;;;;;;;;;;;;;;;;;;6;1;00:00:12.9000000;5;253;None;None;False;RcAssistantTakeoff;16;False;False;False;True;True;2;2;0;False;0;0;GpsAtti;86;-41;-33;0;-2;0;3.1;32.1031649046607;34.8122434756893;0;0;0;0;False;False;1024;1024;840;1024;1024;;;;;;;;;;;;;;;;;;;;
13.092;;;;;;;;;;;;;;;;;;;;;;;;10/22/2015 9:00:11 AM;4.877594;2.236068;0;0;1445504411161;;;;;;;;;;;;;;;;;;;;;;;;;;;;6;1;00:00:13.1000000;5;253;None;None;False;RcAssistantTakeoff;16;False;False;False;True;True;2;2;0;False;0;0;GpsAtti;82;5;-40;0;-2;-1;3.1;32.103165027799;34.8122412255949;0;0;0;0;False;False;1024;1023;797;1024;1024;;;;;;;;;;;;;;;;;;;;
13.395;;;;;;;;;;;;;;;;;;;;;;;;10/22/2015 9:00:11 AM;4.99068;1.414214;0;0;1445504411464;;;;0;0;YawFollow;98;0;0;;;;;;;;;;;;;;;;;;;6;1;00:00:13.3000000;5;253;None;None;False;RcAssistantTakeoff;16;False;False;False;True;True;2;2;0;False;0;0;GpsAtti;79;45;-53;3;-1;-1;3;32.1031649646107;34.8122400297452;0;0;;;;;;;;;;;;;;;;;;;;;;;;;;;;;
13.405;0;0;Normal;30.41;7/1/2015 12:00:00 AM;456;-17531;-2147483648;14;100;4402;4093;15.443;93;;;;;;;;;;10/22/2015 9:00:11 AM;5.135229;1;0;0;1445504411474;;;;0;0;YawFollow;97;0;0;;;;;;;;;;;;;;;;;;;6;1;00:00:13.4000000;2;253;None;None;False;RcAssistantTakeoff;16;False;False;False;True;True;2;2;0;False;0;0;GpsAtti;77;52;-59;3;-1;0;3;32.1031651077656;34.8122385075196;0;0;0;0;False;False;1024;1023;868;1024;1024;;;;;;;93;15.452;0;NonGohome;None;5.055536;0;10;16;0;21;0;;
13.492;;;;;;;;;;;;;;;;;;;;;;;;10/22/2015 9:00:11 AM;5.142209;0;0;0;1445504411561;;;;0;0;YawFollow;96;0;0;;;;;;;;;;;;;;;;;;;6;1;00:00:13.5000000;2;253;None;None;False;RcAssistantTakeoff;16;False;False;False;True;True;2;2;0;False;0;0;GpsAtti;72;52;-59;3;0;0;2.9;32.1031650471888;34.8122384873997;0;0;0;0;False;False;1024;1019;1022;1024;1024;;;;;;;;;;;;;;;;;;;;
13.59;;;;;;;;;;;;;;;;;;;;;;;;10/22/2015 9:00:11 AM;5.159436;1;0;0;1445504411659;;;;0;0;YawFollow;95;0;0;;;;;;;;;;;;;;;;;;;6;1;00:00:13.6000000;3;253;None;None;False;RcAssistantTakeoff;16;False;False;False;True;True;2;2;0;False;0;0;GpsAtti;66;45;-57;2;1;0;2.8;32.1031650316476;34.8122383057988;0;0;0;0;False;False;1024;1024;1297;1024;1024;;;;;;;;;;;;;;;;;;;;
13.698;;;;;;;;;;;;;;;;;;;;;;;;10/22/2015 9:00:11 AM;5.229543;2;0;0;1445504411767;;;;0;0;YawFollow;93;0;0;;;;;;;;;;;;;;;;;;;6;1;00:00:13.7000000;2;253;None;None;False;RcAssistantTakeoff;16;False;False;False;True;True;2;2;0;False;0;0;GpsAtti;58;27;-46;2;2;0;2.8;32.1031652644819;34.8122376152158;0;0;0;0;False;False;1024;1024;1346;1024;1024;;;;;;;;;;;;;;;;;;;;
13.791;;;;;;;;;;;;;;;;;;;;;;;;10/22/2015 9:00:11 AM;5.256883;2;0;0;1445504411860;;;;0;0;YawFollow;90;0;0;;;;;;;;;;;;;;;;;;;6;1;00:00:13.8000000;2;253;None;None;False;RcAssistantTakeoff;16;False;False;False;True;True;2;2;0;False;0;0;GpsAtti;49;13;-34;0;2;0;2.8;32.10316550172;34.8122376940681;0;0;0;0;False;False;1024;1024;1276;1024;1024;;;;;;;;;;;;;;;;;;;;
13.891;;;;;;;;;;;;;;;;;;;;;;;;10/22/2015 9:00:11 AM;5.291759;3;0;0;1445504411960;;;;0;0;YawFollow;87;0;0;;;;;;;;;;;;;;;;;;;6;1;00:00:13.9000000;2;253;None;None;False;RcAssistantTakeoff;16;False;False;False;True;True;2;2;0;False;0;0;GpsAtti;42;11;-27;-3;3;0;2.8;32.1031654768529;34.8122380624227;0;0;0;0;False;False;1024;1024;1024;1024;1024;;;;;;;;;;;;;;;;;;;;
13.99;;;;;;;;;;;;;;;;;;;;;;;;10/22/2015 9:00:12 AM;5.349365;3;0;0;1445504412059;;;;;;;;;;;;;;;;;;;;;;;;;;;;6;1;00:00:14;3;253;None;None;False;RcAssistantTakeoff;16;False;False;False;True;True;2;2;0;False;0;0;GpsAtti;36;6;-26;-7;3;0;2.8;32.1031657745798;34.8122375622641;0;0;;;;;;;;;;;;;;;;;;;;;;;;;;;;;
14.09;;;;;;;;;;;;;;;;;;;;;;;;10/22/2015 9:00:12 AM;5.393182;4.123106;0;0;1445504412159;;;;;;;;;;;;;;;;;;;;;;;;;;;;6;1;00:00:14.1000000;3;253;None;None;False;RcAssistantTakeoff;16;False;False;False;True;True;2;2;0;False;0;0;GpsAtti;34;-12;-35;-6;4;-1;2.9;32.1031656335238;34.8122379959208;0;0;;;;;;;;;;;;;;;;;;;;;;;;;;;;;
14.191;;;;;;;;;;;;;;;;;;;;;;;;10/22/2015 9:00:12 AM;5.438117;4;0;0;1445504412260;;;;0;0;YawFollow;76;0;0;;;;;;;;;;;;;;;;;;;6;1;00:00:14.2000000;3;253;None;None;False;RcAssistantTakeoff;16;False;False;False;True;True;2;2;0;False;0;0;GpsAtti;34;-22;-43;-3;4;0;2.9;32.1031658072155;34.812238426057;0;0;;;;;;;;;;;;;;;;;;;;;;;;;;;;;
14.291;;;;;;;;;;;;;;;;;;;;;;;;10/22/2015 9:00:12 AM;5.475974;4;0;0;1445504412360;;;;0;0;YawFollow;73;0;0;;;;;;;;;;;;;;;;;;;6;1;00:00:14.3000000;3;253;None;None;False;RcAssistantTakeoff;16;False;False;False;True;True;2;2;0;False;0;0;GpsAtti;34;-24;-45;-2;4;0;3;32.1031659926832;34.8122380893194;0;0;;;;;;;;;;;;;;;;;;;;;;;;;;;;;
14.393;0;0;Normal;30.41;7/1/2015 12:00:00 AM;456;-17543;-2147483648;14;100;4402;4093;15.415;93;;;;;;;;;;10/22/2015 9:00:12 AM;5.504499;4;0;0;1445504412462;;;;0;0;YawFollow;71;0;0;;;;;;;;;;;;;;;;;;;6;1;00:00:14.4000000;2;253;None;None;False;RcAssistantTakeoff;16;False;False;True;True;True;2;2;0;False;0;0;GpsAtti;35;-25;-35;-1;4;0;3;32.1031660195558;34.8122383898924;0;0;0;0;False;False;1024;1024;1035;1024;1024;;;;;;;93;15.369;0;NonGohome;None;5.042779;0;10;16;0;21;0;;
14.494;;;;;;;;;;;;;;;;;;;;;;;;10/22/2015 9:00:12 AM;5.55519;5.09902;0;0;1445504412563;;;;0;0;YawFollow;66;0;0;;;;;;;;;;;;;;;;;;;6;1;00:00:14.5000000;2;253;None;None;False;RcAssistantTakeoff;16;False;False;True;True;True;2;2;0;False;0;0;GpsAtti;36;-27;-30;-1;5;-1;3;32.1031659257995;34.812238915545;0;0;0;0;False;False;1024;1024;1027;1024;1024;;;;;;;;;;;;;;;;;;;;
14.791;;;;;;;;;;;;;;;;;;;;;;;;10/22/2015 9:00:12 AM;5.594247;4.472136;0;0;1445504412860;;;;0;0;YawFollow;65;0;0;;;;;;;;;;;;;;;;;;;6;1;00:00:14.8000000;1;253;None;None;False;RcAssistantTakeoff;16;False;False;True;True;True;2;2;0;False;0;0;GpsAtti;44;-29;-46;0;4;-2;3;32.1031660542323;34.8122393008712;0;0;;;;;;;;;;;;;;;;;;;;;;;;;;;;;
14.892;;;;;;;;;;;;;;;;;;;;;;;;10/22/2015 9:00:12 AM;5.606713;5.385165;0;0;1445504412961;;;;;;;;;;;;;;;;;;;;;;;;;;;;6;1;00:00:14.9000000;0;253;None;None;False;RcAssistantTakeoff;16;False;False;False;True;True;2;2;0;False;0;0;GpsAtti;48;-25;-50;0;5;-2;3;32.1031660620256;34.8122391691185;0;0;0;0;False;False;1024;1024;1025;1024;1024;;;;;;;;;;;;;;;;;;;;
15.496;;;;;;;;;;;;;;;;;;;;;;;;10/22/2015 9:00:13 AM;5.725192;5.09902;0;0;1445504413565;;;;0;0;YawFollow;63;0;0;;;;;;;;;;;;;;;;;;;6;1;00:00:15.5000000;0;253;None;None;False;RcAssistantTakeoff;16;False;False;False;True;True;2;2;0;False;0;0;GpsAtti;51;-41;-37;0;5;-1;3.1;32.1031657836627;34.8122403810559;0;0;0;0;False;False;1024;1024;1024;1024;902;;;;;;;;;;;;;;;;;;;;
15.59;;;;;;;;;;;;;;;;;;;;;;;;10/22/2015 9:00:13 AM;5.790179;4.123106;0;0;1445504413659;;;;;;;;;;;;;;;;;;;;;;;;;;;;6;1;00:00:15.6000000;0;253;None;None;False;RcAssistantTakeoff;16;False;False;False;True;True;2;2;0;False;0;0;GpsAtti;48;-41;-36;0;4;-1;3;32.1031659653485;34.8122397264389;0;0;0;0;False;False;1024;1024;1024;1024;1007;;;;;;;;;;;;;;;;;;;;
15.692;;;;;;;;;;;;;;;;;;;;;;;;10/22/2015 9:00:13 AM;5.83798;4.123106;0;0;1445504413761;;;;0;0;YawFollow;62;0;0;;;;;;;;;;;;;;;;;;;6;1;00:00:15.7000000;0;253;None;None;False;RcAssistantTakeoff;16;False;False;False;True;True;2;2;0;False;0;0;GpsAtti;45;-59;-34;0;4;-1;3;32.1031658634447;34.8122402185324;0;0;0;0;False;False;1024;874;1024;1024;1024;;;;;;;;;;;;;;;;;;;;
15.791;;;;;;;;;;;;;;;;;;;;;;;;10/22/2015 9:00:13 AM;5.853865;3.162278;0;0;1445504413860;;;;0;0;YawFollow;52;0;0;;;;;;;;;;;;;;;;;;;6;1;00:00:15.8000000;0;253;None;None;False;RcAssistantTakeoff;16;False;False;False;True;True;2;2;0;False;0;0;GpsAtti;42;-69;-36;0;3;-1;3;32.1031657690281;34.8122403451001;0;0;0;0;False;False;1024;852;1024;1024;1024;;;;;;;;;;;;;;;;;;;;
15.891;;;;;;;;;;;;;;;;;;;;;;;;10/22/2015 9:00:13 AM;5.905572;3.162278;0;0;1445504413960;;;;0;0;YawFollow;41;0;0;;;;;;;;;;;;;;;;;;;6;1;00:00:15.9000000;0;253;None;None;False;RcAssistantTakeoff;16;False;False;False;True;True;2;2;0;False;0;0;GpsAtti;35;-62;-36;0;3;-1;3;32.1031658046637;34.8122397988616;0;0;0;0;False;False;1024;774;1024;1024;1024;;;;;;;;;;;;;;;;;;;;
16.091;;;;;;;;;;;;;;;;;;;;;;;;10/22/2015 9:00:14 AM;5.942724;2.236068;0;0;1445504414160;;;;0;0;YawFollow;6;0;0;;;;;;;;;;;;;;;;;;;6;1;00:00:16.1000000;2;253;None;None;False;RcAssistantTakeoff;16;False;False;False;True;True;2;2;0;False;0;0;GpsAtti;-2;-61;-42;0;2;-1;2.9;32.1031655774665;34.8122400881541;0;0;0;0;False;False;1024;778;1024;1024;1024;;;;;;;;;;;;;;;;;;;;
16.191;;;;;;;;;;;;;;;;;;;;;;;;10/22/2015 9:00:14 AM;6.016882;1.414214;0;0;1445504414260;;;;0;0;YawFollow;-13;0;0;;;;;;;;;;;;;;;;;;;6;1;00:00:16.2000000;3;253;None;None;False;RcAssistantTakeoff;16;False;False;False;True;True;2;2;0;False;0;0;GpsAtti;-36;-61;-42;0;1;-1;2.9;32.1031655291225;34.8122393044979;0;0;0;0;False;False;1024;789;1024;1024;1024;;;;;;;;;;;;;;;;;;;;
16.29;;;;;;;;;;;;;;;;;;;;;;;;10/22/2015 9:00:14 AM;6.039958;1.414214;0;0;1445504414359;;;;0;0;YawFollow;-37;0;0;;;;;;;;;;;;;;;;;;;6;1;00:00:16.3000000;3;253;None;None;False;RcAssistantTakeoff;16;False;False;False;True;True;2;2;0;False;0;0;GpsAtti;-71;-61;-42;0;1;-1;2.9;32.1031653996784;34.8122394959216;0;0;0;0;False;False;1024;791;1024;1024;1024;;;;;;;;;;;;;;;;;;;;
16.391;0;0;Normal;30.41;7/1/2015 12:00:00 AM;456;-16942;-2147483648;14;100;4402;4093;15.415;93;;;;;;;;;;10/22/2015 9:00:14 AM;6.047318;1.414214;0;0;1445504414460;;;;0;0;YawFollow;-65;0;0;;;;;;;;;;;;;;;;;;;6;1;00:00:16.4000000;3;253;None;None;False;RcAssistantTakeoff;16;False;False;False;True;True;2;2;0;False;0;0;GpsAtti;-107;-56;-41;0;1;-1;2.8;32.1031653335627;34.8122395028721;0;0;0;0;False;False;1024;797;1024;1024;1024;;;;;;;93;15.361;0;NonGohome;None;5.027925;0;10;16;0;21;0;;
16.492;;;;;;;;;;;;;;;;;;;;;;;;10/22/2015 9:00:14 AM;6.097267;1.414214;0;0;1445504414561;;;;0;0;YawFollow;-96;0;0;;;;;;;;;;;;;;;;;;;6;1;00:00:16.5000000;3;253;None;None;False;RcAssistantTakeoff;16;False;False;False;True;True;2;2;0;False;0;0;GpsAtti;-142;-55;-44;0;1;-1;2.8;32.1031652797016;34.8122389774602;0;0;0;0;False;False;1024;799;1024;1024;1024;;;;;;;;;;;;;;;;;;;;
16.591;;;;;;;;;;;;;;;;;;;;;;;;10/22/2015 9:00:14 AM;6.125306;2.236068;0;0;1445504414660;;;;0;0;YawFollow;-128;0;0;;;;;;;;;;;;;;;;;;;6;1;00:00:16.6000000;3;253;None;None;False;RcAssistantTakeoff;16;False;False;False;True;True;2;2;0;False;0;0;GpsAtti;-175;-47;-49;-1;1;-2;2.9;32.103165045544;34.8122388653527;0;0;0;0;False;False;1024;785;1024;1024;1024;;;;;;;;;;;;;;;;;;;;
16.692;;;;;;;;;;;;;;;;;;;;;;;;10/22/2015 9:00:14 AM;6.152806;2.236068;0;0;1445504414761;;;;0;0;YawFollow;-162;0;0;;;;;;;;;;;;;;;;;;;6;1;00:00:16.7000000;3;253;None;None;False;RcAssistantTakeoff;16;False;False;False;True;True;2;2;0;False;0;0;GpsAtti;-209;-38;-58;-1;1;-2;2.9;32.1031648388234;34.8122390263206;0;0;0;0;False;False;1024;781;1024;1024;1024;;;;;;;;;;;;;;;;;;;;
16.791;;;;;;;;;;;;;;;;;;;;;;;;10/22/2015 9:00:14 AM;6.222299;2.236068;0;0;1445504414860;;;;0;0;YawFollow;-198;0;0;;;;;;;;;;;;;;;;;;;6;1;00:00:16.8000000;2;253;None;None;False;RcAssistantTakeoff;16;False;False;False;True;True;2;2;0;False;0;0;GpsAtti;-246;-28;-69;-1;1;-2;2.9;32.1031645043448;34.8122384036818;0;0;0;0;False;False;1024;794;1024;1024;1024;;;;;;;;;;;;;;;;;;;;
16.89;;;;;;;;;;;;;;;;;;;;;;;;10/22/2015 9:00:14 AM;6.255121;2.828427;0;0;1445504414959;;;;0;0;YawFollow;-232;0;0;;;;;;;;;;;;;;;;;;;6;1;00:00:16.9000000;2;253;None;None;False;RcAssistantTakeoff;16;False;False;False;True;True;2;2;0;False;0;0;GpsAtti;-285;-19;-78;-1;2;-2;2.9;32.1031642647814;34.8122386079227;0;0;0;0;False;False;1024;1024;1024;1024;1024;;;;;;;;;;;;;;;;;;;;
16.99;;;;;;;;;;;;;;;;;;;;;;;;10/22/2015 9:00:15 AM;6.305232;2.236068;0;0;1445504415059;;;;0;0;YawFollow;-258;0;0;;;;;;;;;;;;;;;;;;;6;1;00:00:17;2;253;None;None;False;RcAssistantTakeoff;16;False;False;False;True;True;2;2;0;False;0;0;GpsAtti;-323;-11;-84;0;1;-2;2.9;32.1031638226995;34.812238497864;0;0;;;;;;;;;;;;;;;;;;;;;;;;;;;;;
17.091;;;;;;;;;;;;;;;;;;;;;;;;10/22/2015 9:00:15 AM;6.35498;2.236068;0;0;1445504415160;;;;0;0;YawFollow;-282;0;0;;;;;;;;;;;;;;;;;;;6;1;00:00:17.1000000;2;253;None;None;False;RcAssistantTakeoff;16;False;False;False;True;True;2;2;0;False;0;0;GpsAtti;-346;-9;-82;-1;2;-1;2.9;32.1031635741996;34.8122380590163;0;0;0;0;False;False;1024;1024;1032;1024;1024;;;;;;;;;;;;;;;;;;;;
17.191;;;;;;;;;;;;;;;;;;;;;;;;10/22/2015 9:00:15 AM;6.385725;1.414214;0;0;1445504415260;;;;0;0;YawFollow;-300;0;0;;;;;;;;;;;;;;;;;;;6;1;00:00:17.2000000;2;253;None;None;False;RcAssistantTakeoff;16;False;False;False;True;True;2;2;0;False;0;0;GpsAtti;-358;-7;-78;0;1;-1;2.8;32.1031633309458;34.8122379027295;0;0;0;0;False;False;1024;1024;1024;1024;1024;;;;;;;;;;;;;;;;;;;;
17.293;;;;;;;;;;;;;;;;;;;;;;;;10/22/2015 9:00:15 AM;6.410735;2;0;0;1445504415362;;;;0;0;YawFollow;-313;0;0;;;;;;;;;;;;;;;;;;;6;1;00:00:17.3000000;4;253;None;None;False;RcAssistantTakeoff;16;False;False;False;True;True;2;2;0;False;0;0;GpsAtti;-368;-4;-78;-1;2;0;2.8;32.1031632320266;34.8122381408649;0;0;0;0;False;False;1024;1024;1007;1024;1024;;;;;;;;;;;;;;;;;;;;
17.392;0;0;Normal;30.41;7/1/2015 12:00:00 AM;456;-17692;-2147483648;14;100;4402;4093;15.387;93;;;;;;;;;;10/22/2015 9:00:15 AM;6.499467;1;0;0;1445504415461;;;;0;0;YawFollow;-324;0;0;;;;;;;;;;;;;;;;;;;6;1;00:00:17.4000000;4;253;None;None;False;RcAssistantTakeoff;16;False;False;False;True;True;2;2;0;False;0;0;GpsAtti;-374;-4;-77;0;1;0;2.8;32.1031628379979;34.8122373226228;0;0;0;0;False;False;1024;1023;944;1024;1024;;;;;;;93;15.454;0;NonGohome;None;5.021216;0;10;16;0;21;0;;
17.493;;;;;;;;;;;;;;;;;;;;;;;;10/22/2015 9:00:15 AM;6.524549;2;0;0;1445504415562;;;;0;0;YawFollow;-332;0;0;;;;;;;;;;;;;;;;;;;6;1;00:00:17.5000000;5;253;None;None;False;RcAssistantTakeoff;16;False;False;False;True;True;2;2;0;False;0;0;GpsAtti;-381;-3;-77;0;2;0;2.8;32.103162770147;34.8122375761316;0;0;0;0;False;False;1024;1022;949;1024;1024;;;;;;;;;;;;;;;;;;;;
17.591;;;;;;;;;;;;;;;;;;;;;;;;10/22/2015 9:00:15 AM;6.551985;2;0;0;1445504415660;;;;0;0;YawFollow;-338;0;0;;;;;;;;;;;;;;;;;;;6;1;00:00:17.6000000;5;253;None;None;False;RcAssistantTakeoff;16;False;False;False;True;True;2;2;0;False;0;0;GpsAtti;-385;0;-77;0;2;0;2.8;32.1031625231114;34.8122375922745;0;0;0;0;False;False;1024;1024;1024;1024;1024;;;;;;;;;;;;;;;;;;;;
17.692;;;;;;;;;;;;;;;;;;;;;;;;10/22/2015 9:00:15 AM;6.605956;3;0;0;1445504415761;;;;0;0;YawFollow;-343;0;0;;;;;;;;;;;;;;;;;;;6;1;00:00:17.7000000;5;253;None;None;False;RcAssistantTakeoff;16;False;False;False;True;True;2;2;0;False;0;0;GpsAtti;-389;0;-78;0;3;0;2.8;32.1031622444235;34.8122371234716;0;0;0;0;False;False;1024;1024;1105;1024;1024;;;;;;;;;;;;;;;;;;;;
17.791;;;;;;;;;;;;;;;;;;;;;;;;10/22/2015 9:00:15 AM;6.635602;2;0;0;1445504415860;;;;0;0;YawFollow;-348;0;0;;;;;;;;;;;;;;;;;;;6;1;00:00:17.8000000;5;253;None;None;False;RcAssistantTakeoff;16;False;False;False;True;True;2;2;0;False;0;0;GpsAtti;-392;0;-82;0;2;0;2.7;32.1031619773286;34.8122371097193;0;0;0;0;False;False;1024;1024;1151;1024;1024;;;;;;;;;;;;;;;;;;;;
18.094;;;;;;;;;;;;;;;;;;;;;;;;10/22/2015 9:00:16 AM;6.682068;3;0;0;1445504416163;;;;0;0;YawFollow;-357;0;0;;;;;;;;;;;;;;;;;;;6;1;00:00:18.1000000;3;253;None;None;False;RcAssistantTakeoff;16;False;False;False;True;True;2;2;0;False;0;0;GpsAtti;-396;-8;-83;-1;3;0;2.7;32.1031615585301;34.812237093202;0;0;;;;;;;;;;;;;;;;;;;;;;;;;;;;;
18.191;;;;;;;;;;;;;;;;;;;;;;;;10/22/2015 9:00:16 AM;6.704437;2;0;0;1445504416260;;;;0;0;YawFollow;-359;0;0;;;;;;;;;;;;;;;;;;;6;1;00:00:18.2000000;3;253;None;None;False;RcAssistantTakeoff;16;False;False;False;True;True;2;2;0;False;0;0;GpsAtti;-393;-7;-84;-3;2;0;2.7;32.1031613688115;34.8122371737337;0;0;0;0;False;False;1024;1024;1183;1024;1024;;;;;;;;;;;;;;;;;;;;
18.29;;;;;;;;;;;;;;;;;;;;;;;;10/22/2015 9:00:16 AM;6.738665;3.162278;0;0;1445504416359;;;;0;0;YawFollow;-361;0;0;;;;;;;;;;;;;;;;;;;6;1;00:00:18.3000000;3;253;None;None;False;RcAssistantTakeoff;16;False;False;False;True;True;2;2;0;False;0;0;GpsAtti;-390;-8;-85;-3;3;1;2.7;32.1031614507781;34.812237523364;0;0;0;0;False;False;1024;1024;1178;1024;1024;;;;;;;;;;;;;;;;;;;;
18.492;0;0;Normal;30.41;7/1/2015 12:00:00 AM;456;-16303;-2147483648;14;100;4402;4093;15.422;93;;;;;;;;;;10/22/2015 9:00:16 AM;6.807156;3;0;0;1445504416561;;;;;;;;;;;;;;;;;;;;;;;;;;;;6;1;00:00:18.4000000;3;253;None;None;False;RcAssistantTakeoff;16;False;False;False;True;True;2;2;0;False;0;0;GpsAtti;-388;-10;-88;-3;3;0;2.7;32.1031609951523;34.812237033433;0;0;;;;;;;;;;;;;;;;;;;;;;;;;;;;;
18.497;;;;;;;;;;;;;;;;;;;;;;;;10/22/2015 9:00:16 AM;6.842908;3.162278;0;0;1445504416566;;;;0;0;YawFollow;-363;0;0;;;;;;;;;;;;;;;;;;;6;1;00:00:18.5000000;3;253;None;None;False;RcAssistantTakeoff;16;False;False;False;True;True;2;2;0;False;0;0;GpsAtti;-389;-11;-92;-3;3;1;2.7;32.1031610966429;34.8122373929733;0;0;0;0;False;False;1024;1024;1176;1024;1024;;;;;;;;;;;;;;;;;;;;
18.696;;;;;;;;;;;;;;;;;;;;;;;;10/22/2015 9:00:16 AM;6.902896;3.162278;0;0;1445504416765;;;;0;0;YawFollow;-365;0;0;;;;;;;;;;;;;;;;;;;6;1;00:00:18.7000000;2;253;None;None;False;RcAssistantTakeoff;16;False;False;False;True;True;2;2;0;False;0;0;GpsAtti;-391;-13;-90;-4;3;1;2.8;32.1031606270823;34.8122370773485;0;0;0;0;False;False;1024;1024;1186;1024;1024;;;;;;;;;;;;;;;;;;;;
18.79;;;;;;;;;;;;;;;;;;;;;;;;10/22/2015 9:00:16 AM;6.917673;3.162278;0;0;1445504416859;;;;;;;;;;;;;;;;;;;;;;;;;;;;6;1;00:00:18.8000000;3;253;None;None;False;RcAssistantTakeoff;16;False;False;False;True;True;2;2;0;False;0;0;GpsAtti;-392;-13;-89;-4;3;1;2.8;32.1031605369712;34.8122371926826;0;0;0;0;False;False;1024;1024;1187;1024;1024;;;;;;;;;;;;;;;;;;;;
